10/01/24 00:00:00 - $GNGNS,210000.00,4440.8803,N,03747.6067,E,AA,09,01.0,052.4,24.8,,*69
10/01/24 00:00:00 - $GPRMC,210000.00,A,4440.8803,N,03747.6067,E,00.53,028.0,090124,,,A*58
10/01/24 00:00:00 - $GNGSA,A,2,10,18,16,23,,,,,,,,,01.3,01.0,00.8*18
10/01/24 00:00:00 - $GNGSA,A,2,85,69,68,74,76,,,,,,,,01.3,01.0,00.8*18
10/01/24 00:00:00 - $GNGBS,210000.00,8.1,9.0,1.2,,,,*5F
10/01/24 00:00:00 - $GPGSV,4,1,13,08,28,311,22,10,76,215,25,15,18,044,22,16,29,230,20*7C
10/01/24 00:00:01 - $GPGSV,4,2,13,18,35,082,23,21,08,283,00,23,62,053,25,26,11,210,00*78
10/01/24 00:00:01 - $GPGSV,4,3,13,32,18,163,22,33,17,242,00,37,36,202,00,39,37,197,00*72
10/01/24 00:00:01 - $GPGSV,4,4,13,40,36,156,00*48
10/01/24 00:00:01 - $GLGSV,3,1,09,68,44,044,34,69,61,139,35,70,10,190,00,74,05,244,18*61
10/01/24 00:00:01 - $GLGSV,3,2,09,75,17,294,28,76,06,348,29,83,27,099,24,84,66,006,20*6F
10/01/24 00:00:01 - $GLGSV,3,3,09,85,20,307,31*55
10/01/24 00:00:01 - $GNGNS,210001.00,4440.8802,N,03747.6070,E,AA,09,01.0,052.4,24.8,,*6F
10/01/24 00:00:01 - $GPRMC,210001.00,A,4440.8802,N,03747.6070,E,00.13,133.7,090124,,,A*56
10/01/24 00:00:02 - $GNGSA,A,2,10,18,16,23,,,,,,,,,01.3,01.0,00.8*18
10/01/24 00:00:02 - $GNGSA,A,2,85,69,68,74,76,,,,,,,,01.3,01.0,00.8*18
10/01/24 00:00:02 - $GNGNS,210002.00,4440.8802,N,03747.6071,E,AA,09,01.0,052.4,24.8,,*6D
10/01/24 00:00:02 - $GPRMC,210002.00,A,4440.8802,N,03747.6071,E,00.27,323.1,090124,,,A*56
10/01/24 00:00:02 - $GNGSA,A,2,10,18,16,23,,,,,,,,,01.3,01.0,00.8*18
10/01/24 00:00:02 - $GNGSA,A,2,85,69,68,74,76,,,,,,,,01.3,01.0,00.8*18
10/01/24 00:00:03 - $GNGNS,210003.00,4440.8802,N,03747.6070,E,AA,09,01.0,052.4,24.8,,*6D
10/01/24 00:00:03 - $GPRMC,210003.00,A,4440.8802,N,03747.6070,E,00.20,227.7,090124,,,A*52
10/01/24 00:00:03 - $GNGSA,A,2,10,18,16,23,,,,,,,,,01.3,01.0,00.8*18
10/01/24 00:00:03 - $GNGSA,A,2,85,69,68,74,76,,,,,,,,01.3,01.0,00.8*18
10/01/24 00:00:04 - $GNGNS,210004.00,4440.8802,N,03747.6070,E,AA,09,01.0,052.4,24.8,,*6A
10/01/24 00:00:04 - $GPRMC,210004.00,A,4440.8802,N,03747.6070,E,00.57,030.5,090124,,,A*53
10/01/24 00:00:04 - $GNGSA,A,2,10,18,16,23,,,,,,,,,01.3,01.0,00.8*18
10/01/24 00:00:04 - $GNGSA,A,2,85,69,68,74,76,,,,,,,,01.3,01.0,00.8*18
10/01/24 00:00:05 - $GNGNS,210005.00,4440.8803,N,03747.6070,E,AA,09,01.0,052.4,24.8,,*6A
10/01/24 00:00:05 - $GPRMC,210005.00,A,4440.8803,N,03747.6070,E,00.53,354.1,090124,,,A*52
10/01/24 00:00:05 - $GNGSA,A,2,10,18,16,23,,,,,,,,,01.3,01.0,00.8*18
10/01/24 00:00:05 - $GNGSA,A,2,85,69,68,74,76,,,,,,,,01.3,01.0,00.8*18
10/01/24 00:00:06 - $AIVER,1,1,AI,TRA,,1,T600-01 SO,2.02.(Sep 24 2015),HWR-1*4F
10/01/24 00:00:06 - $AIVSD,37,0.0,2,,153500,29,11,0,0*74
10/01/24 00:00:06 - $AISSD,,TEST,0,0,0,0,0,GN*63
10/01/24 00:00:06 - $AISSD,,TEST,0,0,0,0,0,AI*62
10/01/24 00:00:06 - $AIVER,1,1,AI,TRA,,1,T600-01 SO,2.02.(Sep 24 2015),HWR-1*4F
10/01/24 00:00:06 - $GNGNS,210006.00,4440.8803,N,03747.6067,E,AA,09,01.0,052.4,24.8,,*6F
10/01/24 00:00:06 - $GPRMC,210006.00,A,4440.8803,N,03747.6067,E,00.71,243.7,090124,,,A*56
10/01/24 00:00:06 - $GNGSA,A,2,10,18,16,23,,,,,,,,,01.3,01.0,00.8*18
10/01/24 00:00:06 - $GNGSA,A,2,85,69,68,74,76,,,,,,,,01.3,01.0,00.8*18
10/01/24 00:00:07 - $GNGNS,210007.00,4440.8801,N,03747.6067,E,AA,09,01.0,052.4,24.8,,*6C
10/01/24 00:00:07 - $GPRMC,210007.00,A,4440.8801,N,03747.6067,E,00.60,048.8,090124,,,A*53
10/01/24 00:00:07 - $GNGSA,A,2,10,18,16,23,,,,,,,,,01.3,01.0,00.8*18
10/01/24 00:00:07 - $GNGSA,A,2,85,69,68,74,76,,,,,,,,01.3,01.0,00.8*18
10/01/24 00:00:08 - $GNGNS,210008.00,4440.8800,N,03747.6070,E,AA,09,01.0,052.4,24.8,,*64
10/01/24 00:00:08 - $GPRMC,210008.00,A,4440.8800,N,03747.6070,E,00.55,070.1,090124,,,A*5F
10/01/24 00:00:08 - $GNGSA,A,2,10,18,16,23,,,,,,,,,01.3,01.0,00.8*18
10/01/24 00:00:08 - $GNGSA,A,2,85,69,68,74,76,,,,,,,,01.3,01.0,00.8*18
10/01/24 00:00:09 - $GNGNS,210009.00,4440.8799,N,03747.6072,E,AA,09,01.0,052.4,24.8,,*68
10/01/24 00:00:09 - $GPRMC,210009.00,A,4440.8799,N,03747.6072,E,00.19,203.9,090124,,,A*55
10/01/24 00:00:09 - $GNGSA,A,2,10,18,16,23,,,,,,,,,01.3,01.0,00.8*18
10/01/24 00:00:09 - $GNGSA,A,2,85,69,68,74,76,,,,,,,,01.3,01.0,00.8*18
10/01/24 00:00:10 - $GNGNS,210010.00,4440.8798,N,03747.6072,E,AA,09,01.0,052.4,24.8,,*61
10/01/24 00:00:10 - $GPRMC,210010.00,A,4440.8798,N,03747.6072,E,00.28,275.0,090124,,,A*56
10/01/24 00:00:10 - $GNGSA,A,2,10,18,16,23,,,,,,,,,01.3,01.0,00.8*18
10/01/24 00:00:10 - $GNGSA,A,2,85,69,68,74,76,,,,,,,,01.3,01.0,00.8*18
10/01/24 00:00:10 - $GNGBS,210010.00,8.9,9.8,1.2,,,,*5E
10/01/24 00:00:10 - $GPGSV,4,1,13,08,28,311,25,10,76,215,25,15,18,044,22,16,29,230,22*79
10/01/24 00:00:11 - $GPGSV,4,2,13,18,35,082,24,21,08,283,00,23,62,053,25,26,11,210,00*7F
10/01/24 00:00:11 - $AIALR,246060,32,A,A,Heading lost/invalid*4E
10/01/24 00:00:11 - $GPGSV,4,3,13,32,18,163,21,33,17,242,00,37,36,202,00,39,37,197,00*71
10/01/24 00:00:11 - $GPGSV,4,4,13,40,36,156,00*48
10/01/24 00:00:11 - $GLGSV,3,1,09,68,44,044,33,69,61,139,35,70,10,190,00,74,05,244,20*6D
10/01/24 00:00:11 - $GLGSV,3,2,09,75,17,294,28,76,06,348,28,83,27,099,23,84,66,006,22*6B
10/01/24 00:00:11 - $GLGSV,3,3,09,85,20,307,30*54
10/01/24 00:00:11 - $GNGNS,210011.00,4440.8797,N,03747.6071,E,AA,09,01.0,052.4,24.8,,*6C
10/01/24 00:00:11 - $GPRMC,210011.00,A,4440.8797,N,03747.6071,E,00.12,231.4,090124,,,A*56
10/01/24 00:00:11 - $GNGSA,A,2,10,18,16,23,,,,,,,,,01.3,01.0,00.8*18
10/01/24 00:00:12 - $GNGSA,A,2,85,69,68,74,76,,,,,,,,01.3,01.0,00.8*18
10/01/24 00:00:12 - $GNGNS,210012.00,4440.8796,N,03747.6069,E,AA,09,01.0,052.4,24.8,,*67
10/01/24 00:00:12 - $GPRMC,210012.00,A,4440.8796,N,03747.6069,E,00.28,222.6,090124,,,A*54
10/01/24 00:00:12 - $GNGSA,A,2,10,18,16,23,,,,,,,,,01.3,01.0,00.8*18
10/01/24 00:00:12 - $GNGSA,A,2,85,69,68,74,76,,,,,,,,01.3,01.0,00.8*18
10/01/24 00:00:13 - $GNGNS,210013.00,4440.8795,N,03747.6068,E,AA,09,01.0,052.4,24.8,,*64
10/01/24 00:00:13 - $GPRMC,210013.00,A,4440.8795,N,03747.6068,E,00.34,138.1,090124,,,A*55
10/01/24 00:00:13 - $GNGSA,A,2,10,18,16,23,,,,,,,,,01.3,01.0,00.8*18
10/01/24 00:00:13 - $GNGSA,A,2,85,69,68,74,76,,,,,,,,01.3,01.0,00.8*18
10/01/24 00:00:14 - $GNGNS,210014.00,4440.8793,N,03747.6067,E,AA,09,01.0,052.4,24.8,,*6A
10/01/24 00:00:14 - $GPRMC,210014.00,A,4440.8793,N,03747.6067,E,00.40,216.0,090124,,,A*56
10/01/24 00:00:14 - $GNGSA,A,2,10,18,16,23,,,,,,,,,01.3,01.0,00.8*18
10/01/24 00:00:14 - $GNGSA,A,2,85,69,68,74,76,,,,,,,,01.3,01.0,00.8*18
10/01/24 00:00:15 - $GNGNS,210015.00,4440.8792,N,03747.6066,E,AA,09,01.0,052.4,24.8,,*6B
10/01/24 00:00:15 - $GPRMC,210015.00,A,4440.8792,N,03747.6066,E,00.12,114.3,090124,,,A*52
10/01/24 00:00:15 - $GNGSA,A,2,10,18,16,23,,,,,,,,,01.3,01.0,00.8*18
10/01/24 00:00:15 - $GNGSA,A,2,85,69,68,74,76,,,,,,,,01.3,01.0,00.8*18
10/01/24 00:00:16 - $GNGNS,210016.00,4440.8792,N,03747.6066,E,AA,09,01.0,052.4,24.8,,*68
10/01/24 00:00:16 - $GPRMC,210016.00,A,4440.8792,N,03747.6066,E,00.17,135.9,090124,,,A*5D
10/01/24 00:00:16 - $GNGSA,A,2,10,18,16,23,,,,,,,,,01.3,01.0,00.8*18
10/01/24 00:00:16 - $GNGSA,A,2,85,69,68,74,76,,,,,,,,01.3,01.0,00.8*18
10/01/24 00:00:17 - $AIVER,1,1,AI,TRA,,1,T600-01 SO,2.02.(Sep 24 2015),HWR-1*4F
10/01/24 00:00:17 - $AIVSD,37,0.0,2,,153500,29,11,0,0*74
10/01/24 00:00:17 - $AISSD,,TEST,0,0,0,0,0,GN*63
10/01/24 00:00:17 - $AISSD,,TEST,0,0,0,0,0,AI*62
10/01/24 00:00:17 - $AIVER,1,1,AI,TRA,,1,T600-01 SO,2.02.(Sep 24 2015),HWR-1*4F
10/01/24 00:00:17 - $GNGNS,210017.00,4440.8792,N,03747.6065,E,AA,09,01.0,052.4,24.8,,*6A
10/01/24 00:00:17 - $GPRMC,210017.00,A,4440.8792,N,03747.6065,E,00.08,271.8,090124,,,A*53
10/01/24 00:00:17 - $GNGSA,A,2,10,18,16,23,,,,,,,,,01.3,01.0,00.8*18
10/01/24 00:00:17 - $GNGSA,A,2,85,69,68,74,76,,,,,,,,01.3,01.0,00.8*18
10/01/24 00:00:18 - $GNGNS,210018.00,4440.8792,N,03747.6067,E,AA,09,01.0,052.4,24.8,,*67
10/01/24 00:00:18 - $GPRMC,210018.00,A,4440.8792,N,03747.6067,E,00.30,107.4,090124,,,A*5B
10/01/24 00:00:18 - $GNGSA,A,2,10,18,16,23,,,,,,,,,01.3,01.0,00.8*18
10/01/24 00:00:18 - $GNGSA,A,2,85,69,68,74,76,,,,,,,,01.3,01.0,00.8*18
10/01/24 00:00:19 - $GNGNS,210019.00,4440.8792,N,03747.6069,E,AA,09,01.0,052.4,24.8,,*68
10/01/24 00:00:19 - $GPRMC,210019.00,A,4440.8792,N,03747.6069,E,00.24,064.4,090124,,,A*55
10/01/24 00:00:19 - $GNGSA,A,2,10,18,16,23,,,,,,,,,01.3,01.0,00.8*18
10/01/24 00:00:19 - $GNGSA,A,2,85,69,68,74,76,,,,,,,,01.3,01.0,00.8*18
10/01/24 00:00:20 - $GNGNS,210020.00,4440.8792,N,03747.6070,E,AA,09,01.0,052.4,24.8,,*6A
10/01/24 00:00:20 - $GPRMC,210020.00,A,4440.8792,N,03747.6070,E,00.57,323.5,090124,,,A*52
10/01/24 00:00:20 - $GNGSA,A,2,10,18,16,23,,,,,,,,,01.3,01.0,00.8*18
10/01/24 00:00:20 - $GNGSA,A,2,85,69,68,74,76,,,,,,,,01.3,01.0,00.8*18
10/01/24 00:00:20 - $GNGBS,210020.00,8.7,9.7,1.2,,,,*5C
10/01/24 00:00:20 - $GPGSV,4,1,13,08,28,311,23,10,76,215,25,15,18,044,21,16,28,230,22*7D
10/01/24 00:00:21 - $GPGSV,4,2,13,18,35,082,25,21,08,283,00,23,62,053,26,26,11,210,00*7D
10/01/24 00:00:21 - $GPGSV,4,3,13,32,18,163,21,33,17,242,00,37,36,202,00,39,37,197,00*71
10/01/24 00:00:21 - $GPGSV,4,4,13,40,36,156,00*48
10/01/24 00:00:21 - $GLGSV,3,1,09,68,43,044,33,69,61,139,33,70,10,190,00,74,05,244,19*66
10/01/24 00:00:21 - $GLGSV,3,2,09,75,17,294,28,76,06,348,27,83,27,099,24,84,66,006,22*63
10/01/24 00:00:21 - $GLGSV,3,3,09,85,20,307,29*5C
10/01/24 00:00:21 - $GNGNS,210021.00,4440.8793,N,03747.6068,E,AA,09,01.0,052.4,24.8,,*63
10/01/24 00:00:21 - $GPRMC,210021.00,A,4440.8793,N,03747.6068,E,00.74,246.7,090124,,,A*5A
10/01/24 00:00:21 - $GNGSA,A,2,10,18,16,23,,,,,,,,,01.3,01.0,00.8*18
10/01/24 00:00:22 - $GNGSA,A,2,85,69,68,74,76,,,,,,,,01.3,01.0,00.8*18
10/01/24 00:00:22 - $GNGNS,210022.00,4440.8792,N,03747.6066,E,AA,09,01.0,052.4,24.8,,*6F
10/01/24 00:00:22 - $GPRMC,210022.00,A,4440.8792,N,03747.6066,E,00.46,212.7,090124,,,A*56
10/01/24 00:00:22 - $GNGSA,A,2,10,18,16,23,,,,,,,,,01.3,01.0,00.8*18
10/01/24 00:00:22 - $GNGSA,A,2,85,69,68,74,76,,,,,,,,01.3,01.0,00.8*18
10/01/24 00:00:23 - $GNGNS,210023.00,4440.8793,N,03747.6066,E,AA,09,01.0,052.4,24.8,,*6F
10/01/24 00:00:23 - $GPRMC,210023.00,A,4440.8793,N,03747.6066,E,00.88,018.5,090124,,,A*5E
10/01/24 00:00:23 - $GNGSA,A,2,10,18,16,23,,,,,,,,,01.3,01.0,00.8*18
10/01/24 00:00:23 - $GNGSA,A,2,85,69,68,74,76,,,,,,,,01.3,01.0,00.8*18
10/01/24 00:00:24 - $GNGNS,210024.00,4440.8794,N,03747.6067,E,AA,09,01.0,052.4,24.8,,*6E
10/01/24 00:00:24 - $GPRMC,210024.00,A,4440.8794,N,03747.6067,E,00.23,062.1,090124,,,A*57
10/01/24 00:00:24 - $GNGSA,A,2,10,18,16,23,,,,,,,,,01.3,01.0,00.8*18
10/01/24 00:00:24 - $GNGSA,A,2,85,69,68,74,76,,,,,,,,01.3,01.0,00.8*18
10/01/24 00:00:25 - $GNGNS,210025.00,4440.8795,N,03747.6067,E,AA,09,01.0,052.4,24.8,,*6E
10/01/24 00:00:25 - $GPRMC,210025.00,A,4440.8795,N,03747.6067,E,00.28,114.1,090124,,,A*5C
10/01/24 00:00:25 - $GNGSA,A,2,10,18,16,23,,,,,,,,,01.3,01.0,00.8*18
10/01/24 00:00:25 - $GNGSA,A,2,85,69,68,74,76,,,,,,,,01.3,01.0,00.8*18
10/01/24 00:00:26 - $GNGNS,210026.00,4440.8794,N,03747.6068,E,AA,09,01.0,052.4,24.8,,*63
10/01/24 00:00:26 - $GPRMC,210026.00,A,4440.8794,N,03747.6068,E,00.82,184.0,090124,,,A*59
10/01/24 00:00:26 - $GNGSA,A,2,10,18,16,23,,,,,,,,,01.3,01.0,00.8*18
10/01/24 00:00:26 - $GNGSA,A,2,85,69,68,74,76,,,,,,,,01.3,01.0,00.8*18
10/01/24 00:00:27 - $GNGNS,210027.00,4440.8793,N,03747.6067,E,AA,09,01.0,052.4,24.8,,*6A
10/01/24 00:00:27 - $GPRMC,210027.00,A,4440.8793,N,03747.6067,E,00.13,306.7,090124,,,A*57
10/01/24 00:00:27 - $GNGSA,A,2,10,18,16,23,,,,,,,,,01.3,01.0,00.8*18
10/01/24 00:00:27 - $GNGSA,A,2,85,69,68,74,76,,,,,,,,01.3,01.0,00.8*18
10/01/24 00:00:28 - $GNGNS,210028.00,4440.8792,N,03747.6068,E,AA,09,01.0,052.4,24.8,,*6B
10/01/24 00:00:28 - $AIVER,1,1,AI,TRA,,1,T600-01 SO,2.02.(Sep 24 2015),HWR-1*4F
10/01/24 00:00:28 - $AIVSD,37,0.0,2,,153500,29,11,0,0*74
10/01/24 00:00:28 - $AISSD,,TEST,0,0,0,0,0,GN*63
10/01/24 00:00:28 - $AISSD,,TEST,0,0,0,0,0,AI*62
10/01/24 00:00:28 - $AIVER,1,1,AI,TRA,,1,T600-01 SO,2.02.(Sep 24 2015),HWR-1*4F
10/01/24 00:00:28 - $GPRMC,210028.00,A,4440.8792,N,03747.6068,E,00.57,047.8,090124,,,A*5F
10/01/24 00:00:28 - $GNGSA,A,2,10,18,16,23,,,,,,,,,01.3,01.0,00.8*18
10/01/24 00:00:28 - $GNGSA,A,2,85,69,68,74,76,,,,,,,,01.3,01.0,00.8*18
10/01/24 00:00:29 - $GNGNS,210029.00,4440.8792,N,03747.6069,E,AA,09,01.0,052.4,24.8,,*6B
10/01/24 00:00:29 - $GPRMC,210029.00,A,4440.8792,N,03747.6069,E,00.12,141.5,090124,,,A*54
10/01/24 00:00:29 - $GNGSA,A,2,10,18,16,23,,,,,,,,,01.3,01.0,00.8*18
10/01/24 00:00:29 - $GNGSA,A,2,85,69,68,74,76,,,,,,,,01.3,01.0,00.8*18
10/01/24 00:00:30 - $GNGNS,210030.00,4440.8791,N,03747.6069,E,AA,09,01.0,052.4,24.8,,*60
10/01/24 00:00:30 - $GPRMC,210030.00,A,4440.8791,N,03747.6069,E,00.16,006.9,090124,,,A*55
10/01/24 00:00:30 - $GNGSA,A,2,10,18,16,23,,,,,,,,,01.3,01.0,00.8*18
10/01/24 00:00:30 - $GNGSA,A,2,85,69,68,74,76,,,,,,,,01.3,01.0,00.8*18
10/01/24 00:00:30 - $GNGBS,210030.00,9.1,9.1,1.2,,,,*5C
10/01/24 00:00:30 - $GPGSV,4,1,13,08,28,310,26,10,77,215,25,15,18,044,22,16,28,230,23*7A
10/01/24 00:00:31 - $GPGSV,4,2,13,18,35,082,24,21,08,283,00,23,62,053,26,26,10,210,00*7D
10/01/24 00:00:31 - $GPGSV,4,3,13,32,18,163,19,33,17,242,00,37,36,202,00,39,37,197,00*7A
10/01/24 00:00:31 - $GPGSV,4,4,13,40,36,156,00*48
10/01/24 00:00:31 - $GLGSV,3,1,09,68,43,044,34,69,61,139,34,70,10,190,00,74,05,244,18*67
10/01/24 00:00:31 - $GLGSV,3,2,09,75,17,293,28,76,06,348,27,83,27,099,24,84,66,007,21*66
10/01/24 00:00:31 - $GLGSV,3,3,09,85,20,307,30*54
10/01/24 00:00:31 - $GNGNS,210031.00,4440.8792,N,03747.6066,E,AA,09,01.0,052.4,24.8,,*6D
10/01/24 00:00:31 - $GPRMC,210031.00,A,4440.8792,N,03747.6066,E,01.40,271.9,090124,,,A*58
10/01/24 00:00:32 - $GNGSA,A,2,10,18,16,23,,,,,,,,,01.3,01.0,00.8*18
10/01/24 00:00:32 - $GNGSA,A,2,85,69,68,74,76,,,,,,,,01.3,01.0,00.8*18
10/01/24 00:00:32 - $GNGNS,210032.00,4440.8792,N,03747.6061,E,AA,09,01.0,052.4,24.8,,*69
10/01/24 00:00:32 - $GPRMC,210032.00,A,4440.8792,N,03747.6061,E,00.29,292.2,090124,,,A*54
10/01/24 00:00:32 - $GNGSA,A,2,10,18,16,23,,,,,,,,,01.3,01.0,00.8*18
10/01/24 00:00:32 - $GNGSA,A,2,85,69,68,74,76,,,,,,,,01.3,01.0,00.8*18
10/01/24 00:00:33 - $GNGNS,210033.00,4440.8792,N,03747.6059,E,AA,09,01.1,052.2,24.8,,*64
10/01/24 00:00:33 - $GPRMC,210033.00,A,4440.8792,N,03747.6059,E,00.43,121.7,090124,,,A*5C
10/01/24 00:00:33 - $GNGSA,A,3,10,18,16,23,,,,,,,,,01.9,01.1,01.6*1D
10/01/24 00:00:33 - $GNGSA,A,3,85,69,68,74,76,,,,,,,,01.9,01.1,01.6*1D
10/01/24 00:00:34 - $GNGNS,210034.00,4440.8791,N,03747.6059,E,AA,09,01.0,052.0,24.8,,*63
10/01/24 00:00:34 - $GPRMC,210034.00,A,4440.8791,N,03747.6059,E,00.08,196.4,090124,,,A*58
10/01/24 00:00:34 - $GNGSA,A,2,10,18,16,23,,,,,,,,,01.3,01.0,00.8*18
10/01/24 00:00:34 - $GNGSA,A,2,85,69,68,74,76,,,,,,,,01.3,01.0,00.8*18
10/01/24 00:00:35 - $GNGNS,210035.00,4440.8792,N,03747.6059,E,AA,09,01.0,052.0,24.8,,*61
10/01/24 00:00:35 - $GPRMC,210035.00,A,4440.8792,N,03747.6059,E,00.30,154.0,090124,,,A*5B
10/01/24 00:00:35 - $GNGSA,A,2,10,18,16,23,,,,,,,,,01.3,01.0,00.8*18
10/01/24 00:00:35 - $GNGSA,A,2,85,69,68,74,76,,,,,,,,01.3,01.0,00.8*18
10/01/24 00:00:36 - $GNGNS,210036.00,4440.8791,N,03747.6062,E,AA,09,01.1,052.1,24.8,,*69
10/01/24 00:00:36 - $GPRMC,210036.00,A,4440.8791,N,03747.6062,E,00.44,095.1,090124,,,A*5D
10/01/24 00:00:36 - $GNGSA,A,3,10,18,16,23,,,,,,,,,01.9,01.1,01.6*1D
10/01/24 00:00:36 - $GNGSA,A,3,85,69,68,74,76,,,,,,,,01.9,01.1,01.6*1D
10/01/24 00:00:37 - $GNGNS,210037.00,4440.8792,N,03747.6063,E,AA,09,01.1,052.3,24.8,,*68
10/01/24 00:00:37 - $GPRMC,210037.00,A,4440.8792,N,03747.6063,E,00.25,001.7,090124,,,A*52
10/01/24 00:00:37 - $GNGSA,A,3,10,18,16,23,,,,,,,,,01.9,01.1,01.6*1D
10/01/24 00:00:37 - $GNGSA,A,3,85,69,68,74,76,,,,,,,,01.9,01.1,01.6*1D
10/01/24 00:00:38 - $GNGNS,210038.00,4440.8794,N,03747.6062,E,AA,09,01.0,053.0,24.8,,*63
10/01/24 00:00:38 - $GPRMC,210038.00,A,4440.8794,N,03747.6062,E,00.31,013.9,090124,,,A*52
10/01/24 00:00:38 - $GNGSA,A,2,10,18,16,23,,,,,,,,,01.3,01.0,00.8*18
10/01/24 00:00:38 - $GNGSA,A,2,85,69,68,74,76,,,,,,,,01.3,01.0,00.8*18
10/01/24 00:00:39 - $GNGNS,210039.00,4440.8795,N,03747.6063,E,AA,09,01.0,053.0,24.8,,*62
10/01/24 00:00:39 - $GPRMC,210039.00,A,4440.8795,N,03747.6063,E,00.17,275.3,090124,,,A*5F
10/01/24 00:00:39 - $AIVER,1,1,AI,TRA,,1,T600-01 SO,2.02.(Sep 24 2015),HWR-1*4F
10/01/24 00:00:39 - $AIVSD,37,0.0,2,,153500,29,11,0,0*74
10/01/24 00:00:39 - $AISSD,,TEST,0,0,0,0,0,GN*63
10/01/24 00:00:39 - $AISSD,,TEST,0,0,0,0,0,AI*62
10/01/24 00:00:39 - $AIVER,1,1,AI,TRA,,1,T600-01 SO,2.02.(Sep 24 2015),HWR-1*4F
10/01/24 00:00:39 - $GNGSA,A,2,10,18,16,23,,,,,,,,,01.3,01.0,00.8*18
10/01/24 00:00:39 - $GNGSA,A,2,85,69,68,74,76,,,,,,,,01.3,01.0,00.8*18
10/01/24 00:00:40 - $GNGNS,210040.00,4440.8795,N,03747.6062,E,AA,09,01.0,053.0,24.8,,*6D
10/01/24 00:00:40 - $GPRMC,210040.00,A,4440.8795,N,03747.6062,E,00.56,192.5,090124,,,A*59
10/01/24 00:00:40 - $GNGSA,A,2,10,18,16,23,,,,,,,,,01.3,01.0,00.8*18
10/01/24 00:00:40 - $GNGSA,A,2,85,69,68,74,76,,,,,,,,01.3,01.0,00.8*18
10/01/24 00:00:40 - $GNGBS,210040.00,10.2,9.4,4.5,,,,*67
10/01/24 00:00:40 - $GPGSV,4,1,13,08,28,310,24,10,77,215,25,15,18,044,23,16,28,230,23*79
10/01/24 00:00:41 - $GPGSV,4,2,13,18,35,082,24,21,08,283,00,23,62,053,26,26,10,210,00*7D
10/01/24 00:00:41 - $AIALR,246060,32,A,A,Heading lost/invalid*4E
10/01/24 00:00:41 - $GPGSV,4,3,13,32,18,163,22,33,17,242,00,37,36,202,00,39,37,197,00*72
10/01/24 00:00:41 - $GPGSV,4,4,13,40,36,156,00*48
10/01/24 00:00:41 - $GLGSV,3,1,09,68,43,044,33,69,62,139,34,70,10,190,00,74,05,243,17*6B
10/01/24 00:00:41 - $GLGSV,3,2,09,75,17,293,28,76,06,347,27,83,27,099,23,84,66,007,21*6E
10/01/24 00:00:41 - $GLGSV,3,3,09,85,20,307,28*5D
10/01/24 00:00:41 - $GNGNS,210041.00,4440.8792,N,03747.6065,E,AA,09,01.1,052.8,24.8,,*64
10/01/24 00:00:41 - $GPRMC,210041.00,A,4440.8792,N,03747.6065,E,00.58,119.3,090124,,,A*53
10/01/24 00:00:41 - $GNGSA,A,3,10,18,16,23,,,,,,,,,01.9,01.1,01.6*1D
10/01/24 00:00:42 - $GNGSA,A,3,85,69,68,74,76,,,,,,,,01.9,01.1,01.6*1D
10/01/24 00:00:42 - $GNGNS,210042.00,4440.8792,N,03747.6066,E,AA,09,01.1,053.0,24.8,,*6D
10/01/24 00:00:42 - $GPRMC,210042.00,A,4440.8792,N,03747.6066,E,00.56,293.3,090124,,,A*5C
10/01/24 00:00:42 - $GNGSA,A,3,10,18,16,23,,,,,,,,,01.9,01.1,01.6*1D
10/01/24 00:00:42 - $GNGSA,A,3,85,69,68,74,76,,,,,,,,01.9,01.1,01.6*1D
10/01/24 00:00:43 - $GNGNS,210043.00,4440.8792,N,03747.6065,E,AA,09,01.1,052.9,24.8,,*67
10/01/24 00:00:43 - $GPRMC,210043.00,A,4440.8792,N,03747.6065,E,00.05,351.2,090124,,,A*56
10/01/24 00:00:43 - $GNGSA,A,3,10,18,16,23,,,,,,,,,01.9,01.1,01.6*1D
10/01/24 00:00:43 - $GNGSA,A,3,85,69,68,74,76,,,,,,,,01.9,01.1,01.6*1D
10/01/24 00:00:44 - $GNGNS,210044.00,4440.8793,N,03747.6065,E,AA,09,01.0,052.9,24.8,,*60
10/01/24 00:00:44 - $GPRMC,210044.00,A,4440.8793,N,03747.6065,E,00.34,314.7,090124,,,A*56
10/01/24 00:00:44 - $GNGSA,A,2,10,18,16,23,,,,,,,,,01.3,01.0,00.8*18
10/01/24 00:00:44 - $GNGSA,A,2,85,69,68,74,76,,,,,,,,01.3,01.0,00.8*18
10/01/24 00:00:45 - $GNGNS,210045.00,4440.8793,N,03747.6066,E,AA,09,01.0,052.9,24.8,,*62
10/01/24 00:00:45 - $GPRMC,210045.00,A,4440.8793,N,03747.6066,E,00.27,319.0,090124,,,A*5C
10/01/24 00:00:45 - $GNGSA,A,2,10,18,16,23,,,,,,,,,01.3,01.0,00.8*18
10/01/24 00:00:45 - $GNGSA,A,2,85,69,68,74,76,,,,,,,,01.3,01.0,00.8*18
10/01/24 00:00:46 - $GNGNS,210046.00,4440.8794,N,03747.6068,E,AA,09,01.0,052.9,24.8,,*68
10/01/24 00:00:46 - $GPRMC,210046.00,A,4440.8794,N,03747.6068,E,00.58,048.1,090124,,,A*58
10/01/24 00:00:46 - $GNGSA,A,2,10,18,16,23,,,,,,,,,01.3,01.0,00.8*18
10/01/24 00:00:46 - $GNGSA,A,2,85,69,68,74,76,,,,,,,,01.3,01.0,00.8*18
10/01/24 00:00:47 - $GNGNS,210047.00,4440.8794,N,03747.6069,E,AA,09,01.0,052.9,24.8,,*68
10/01/24 00:00:47 - $GPRMC,210047.00,A,4440.8794,N,03747.6069,E,00.87,233.5,090124,,,A*50
10/01/24 00:00:47 - $GNGSA,A,2,10,18,16,23,,,,,,,,,01.3,01.0,00.8*18
10/01/24 00:00:47 - $GNGSA,A,2,85,69,68,74,76,,,,,,,,01.3,01.0,00.8*18
10/01/24 00:00:48 - $GNGNS,210048.00,4440.8794,N,03747.6069,E,AA,09,01.0,052.9,24.8,,*67
10/01/24 00:00:48 - $GPRMC,210048.00,A,4440.8794,N,03747.6069,E,00.14,149.3,090124,,,A*5D
10/01/24 00:00:48 - $GNGSA,A,2,10,18,16,23,,,,,,,,,01.3,01.0,00.8*18
10/01/24 00:00:48 - $GNGSA,A,2,85,69,68,74,76,,,,,,,,01.3,01.0,00.8*18
10/01/24 00:00:49 - $GNGNS,210049.00,4440.8794,N,03747.6068,E,AA,09,01.0,052.9,24.8,,*67
10/01/24 00:00:49 - $GPRMC,210049.00,A,4440.8794,N,03747.6068,E,00.14,033.1,090124,,,A*53
10/01/24 00:00:49 - $GNGSA,A,2,10,18,16,23,,,,,,,,,01.3,01.0,00.8*18
10/01/24 00:00:49 - $GNGSA,A,2,85,69,68,74,76,,,,,,,,01.3,01.0,00.8*18
10/01/24 00:00:50 - $GNGNS,210050.00,4440.8795,N,03747.6068,E,AA,09,01.0,052.9,24.8,,*6E
10/01/24 00:00:50 - $GPRMC,210050.00,A,4440.8795,N,03747.6068,E,00.24,032.8,090124,,,A*51
10/01/24 00:00:50 - $GNGSA,A,2,10,18,16,23,,,,,,,,,01.3,01.0,00.8*18
10/01/24 00:00:50 - $GNGSA,A,2,85,69,68,74,76,,,,,,,,01.3,01.0,00.8*18
10/01/24 00:00:50 - $AIVER,1,1,AI,TRA,,1,T600-01 SO,2.02.(Sep 24 2015),HWR-1*4F
10/01/24 00:00:50 - $AIVSD,37,0.0,2,,153500,29,11,0,0*74
10/01/24 00:00:50 - $AISSD,,TEST,0,0,0,0,0,GN*63
10/01/24 00:00:50 - $AISSD,,TEST,0,0,0,0,0,AI*62
10/01/24 00:00:50 - $AIVER,1,1,AI,TRA,,1,T600-01 SO,2.02.(Sep 24 2015),HWR-1*4F
10/01/24 00:00:50 - $GNGBS,210050.00,9.3,9.2,4.5,,,,*59
10/01/24 00:00:50 - $GPGSV,4,1,13,08,28,310,25,10,77,215,25,15,18,044,22,16,28,230,22*78
10/01/24 00:00:51 - $GPGSV,4,2,13,18,35,082,25,21,08,283,00,23,62,053,25,26,10,210,00*7F
10/01/24 00:00:51 - $GPGSV,4,3,13,32,18,163,22,33,17,242,00,37,36,202,00,39,37,197,00*72
10/01/24 00:00:51 - $GPGSV,4,4,13,40,36,156,00*48
10/01/24 00:00:51 - $GLGSV,3,1,09,68,43,044,33,69,62,139,35,70,10,190,00,74,05,243,17*6A
10/01/24 00:00:51 - $GLGSV,3,2,09,75,17,293,28,76,06,347,27,83,27,099,26,84,66,007,22*68
10/01/24 00:00:51 - $GLGSV,3,3,09,85,20,307,30*54
10/01/24 00:00:51 - $GNGNS,210051.00,4440.8796,N,03747.6069,E,AA,09,01.0,052.9,24.8,,*6D
10/01/24 00:00:51 - $GPRMC,210051.00,A,4440.8796,N,03747.6069,E,00.17,318.4,090124,,,A*55
10/01/24 00:00:51 - $GNGSA,A,2,10,18,16,23,,,,,,,,,01.3,01.0,00.8*18
10/01/24 00:00:52 - $GNGSA,A,2,85,69,68,74,76,,,,,,,,01.3,01.0,00.8*18
10/01/24 00:00:52 - $GNGNS,210052.00,4440.8797,N,03747.6070,E,AA,09,01.0,052.9,24.8,,*67
10/01/24 00:00:52 - $GPRMC,210052.00,A,4440.8797,N,03747.6070,E,00.81,014.3,090124,,,A*58
10/01/24 00:00:52 - $GNGSA,A,2,10,18,16,23,,,,,,,,,01.3,01.0,00.8*18
10/01/24 00:00:52 - $GNGSA,A,2,85,69,68,74,76,,,,,,,,01.3,01.0,00.8*18
10/01/24 00:00:53 - $GNGNS,210053.00,4440.8798,N,03747.6072,E,AA,09,01.0,052.9,24.8,,*6B
10/01/24 00:00:53 - $GPRMC,210053.00,A,4440.8798,N,03747.6072,E,00.28,240.2,090124,,,A*55
10/01/24 00:00:53 - $GNGSA,A,2,10,18,16,23,,,,,,,,,01.3,01.0,00.8*18
10/01/24 00:00:53 - $GNGSA,A,2,85,69,68,74,76,,,,,,,,01.3,01.0,00.8*18
10/01/24 00:00:54 - $GNGNS,210054.00,4440.8796,N,03747.6074,E,AA,09,01.0,052.9,24.8,,*64
10/01/24 00:00:54 - $GPRMC,210054.00,A,4440.8796,N,03747.6074,E,00.59,198.2,090124,,,A*5A
10/01/24 00:00:54 - $GNGSA,A,2,10,18,16,23,,,,,,,,,01.3,01.0,00.8*18
10/01/24 00:00:54 - $GNGSA,A,2,85,69,68,74,76,,,,,,,,01.3,01.0,00.8*18
10/01/24 00:00:55 - $GNGNS,210055.00,4440.8795,N,03747.6076,E,AA,09,01.0,052.9,24.8,,*64
10/01/24 00:00:55 - $GPRMC,210055.00,A,4440.8795,N,03747.6076,E,00.14,027.3,090124,,,A*57
10/01/24 00:00:55 - $GNGSA,A,2,10,18,16,23,,,,,,,,,01.3,01.0,00.8*18
10/01/24 00:00:55 - $GNGSA,A,2,85,69,68,74,76,,,,,,,,01.3,01.0,00.8*18
10/01/24 00:00:56 - $GNGNS,210056.00,4440.8795,N,03747.6077,E,AA,09,01.0,052.9,24.8,,*66
10/01/24 00:00:56 - $GPRMC,210056.00,A,4440.8795,N,03747.6077,E,00.39,276.0,090124,,,A*5F
10/01/24 00:00:56 - $GNGSA,A,2,10,18,16,23,,,,,,,,,01.3,01.0,00.8*18
10/01/24 00:00:56 - $GNGSA,A,2,85,69,68,74,76,,,,,,,,01.3,01.0,00.8*18
10/01/24 00:00:57 - $GNGNS,210057.00,4440.8794,N,03747.6078,E,AA,09,01.0,052.9,24.8,,*69
10/01/24 00:00:57 - $GPRMC,210057.00,A,4440.8794,N,03747.6078,E,00.16,097.6,090124,,,A*56
10/01/24 00:00:57 - $GNGSA,A,2,10,18,16,23,,,,,,,,,01.3,01.0,00.8*18
10/01/24 00:00:57 - $GNGSA,A,2,85,69,68,74,76,,,,,,,,01.3,01.0,00.8*18
10/01/24 00:00:58 - $GNGNS,210058.00,4440.8794,N,03747.6079,E,AA,09,01.0,052.9,24.8,,*67
10/01/24 00:00:58 - $GPRMC,210058.00,A,4440.8794,N,03747.6079,E,00.41,347.9,090124,,,A*5B
10/01/24 00:00:58 - $GNGSA,A,2,10,18,16,23,,,,,,,,,01.3,01.0,00.8*18
10/01/24 00:00:58 - $GNGSA,A,2,85,69,68,74,76,,,,,,,,01.3,01.0,00.8*18
10/01/24 00:00:59 - $GNGNS,210059.00,4440.8794,N,03747.6079,E,AA,09,01.0,052.9,24.8,,*66
10/01/24 00:00:59 - $GPRMC,210059.00,A,4440.8794,N,03747.6079,E,00.10,293.2,090124,,,A*5D
10/01/24 00:00:59 - $GNGSA,A,2,10,18,16,23,,,,,,,,,01.3,01.0,00.8*18
10/01/24 00:00:59 - $GNGSA,A,2,85,69,68,74,76,,,,,,,,01.3,01.0,00.8*18
10/01/24 00:01:00 - $GNGNS,210100.00,4440.8792,N,03747.6080,E,AA,09,01.0,052.9,24.8,,*6B
10/01/24 00:01:00 - $GPRMC,210100.00,A,4440.8792,N,03747.6080,E,00.25,211.1,090124,,,A*5F
10/01/24 00:01:00 - $GNGSA,A,2,10,18,16,23,,,,,,,,,01.3,01.0,00.8*18
10/01/24 00:01:00 - $GNGSA,A,2,85,69,68,74,76,,,,,,,,01.3,01.0,00.8*18
10/01/24 00:01:00 - $GNGBS,210100.00,8.2,8.8,1.9,,,,*5F
10/01/24 00:01:00 - $GPGSV,4,1,13,08,29,310,23,10,77,215,24,15,18,044,20,16,28,230,22*7C
10/01/24 00:01:01 - $GPGSV,4,2,13,18,35,082,24,21,08,283,00,23,62,053,25,26,10,210,00*7E
10/01/24 00:01:01 - $GPGSV,4,3,13,32,19,163,18,33,17,242,00,37,36,202,00,39,37,197,00*7A
10/01/24 00:01:01 - $GPGSV,4,4,13,40,36,156,00*48
10/01/24 00:01:01 - $GLGSV,3,1,09,68,43,043,34,69,62,139,35,70,10,190,00,74,05,243,18*65
10/01/24 00:01:01 - $GLGSV,3,2,09,75,17,293,28,76,06,347,26,83,27,099,24,84,66,007,22*6B
10/01/24 00:01:01 - $GLGSV,3,3,09,85,20,307,30*54
10/01/24 00:01:01 - $AIVER,1,1,AI,TRA,,1,T600-01 SO,2.02.(Sep 24 2015),HWR-1*4F
10/01/24 00:01:01 - $AIVSD,37,0.0,2,,153500,29,11,0,0*74
10/01/24 00:01:01 - $AISSD,,TEST,0,0,0,0,0,GN*63
10/01/24 00:01:01 - $AISSD,,TEST,0,0,0,0,0,AI*62
10/01/24 00:01:01 - $AIVER,1,1,AI,TRA,,1,T600-01 SO,2.02.(Sep 24 2015),HWR-1*4F
10/01/24 00:01:01 - $GNGNS,210101.00,4440.8791,N,03747.6081,E,AA,09,01.0,052.9,24.8,,*68
10/01/24 00:01:01 - $GPRMC,210101.00,A,4440.8791,N,03747.6081,E,00.37,236.8,090124,,,A*53
10/01/24 00:01:02 - $GNGSA,A,2,10,18,16,23,,,,,,,,,01.3,01.0,00.8*18
10/01/24 00:01:02 - $GNGSA,A,2,85,69,68,74,76,,,,,,,,01.3,01.0,00.8*18
10/01/24 00:01:02 - $GNGNS,210102.00,4440.8792,N,03747.6083,E,AA,09,01.0,052.9,24.8,,*6A
10/01/24 00:01:02 - $GPRMC,210102.00,A,4440.8792,N,03747.6083,E,01.08,000.6,090124,,,A*55
10/01/24 00:01:02 - $GNGSA,A,2,10,18,16,23,,,,,,,,,01.3,01.0,00.8*18
10/01/24 00:01:02 - $GNGSA,A,2,85,69,68,74,76,,,,,,,,01.3,01.0,00.8*18
10/01/24 00:01:03 - $GNGNS,210103.00,4440.8793,N,03747.6084,E,AA,09,01.0,052.9,24.8,,*6D
10/01/24 00:01:03 - $GPRMC,210103.00,A,4440.8793,N,03747.6084,E,00.08,102.3,090124,,,A*55
10/01/24 00:01:03 - $GNGSA,A,2,10,18,16,23,,,,,,,,,01.3,01.0,00.8*18
10/01/24 00:01:03 - $GNGSA,A,2,85,69,68,74,76,,,,,,,,01.3,01.0,00.8*18
10/01/24 00:01:04 - $GNGNS,210104.00,4440.8794,N,03747.6086,E,AA,09,01.0,052.9,24.8,,*6F
10/01/24 00:01:04 - $GPRMC,210104.00,A,4440.8794,N,03747.6086,E,00.73,041.8,090124,,,A*56
10/01/24 00:01:04 - $GNGSA,A,2,10,18,16,23,,,,,,,,,01.3,01.0,00.8*18
10/01/24 00:01:04 - $GNGSA,A,2,85,69,68,74,76,,,,,,,,01.3,01.0,00.8*18
10/01/24 00:01:05 - $GNGNS,210105.00,4440.8795,N,03747.6088,E,AA,09,01.0,052.9,24.8,,*61
10/01/24 00:01:05 - $GPRMC,210105.00,A,4440.8795,N,03747.6088,E,00.32,009.8,090124,,,A*51
10/01/24 00:01:05 - $GNGSA,A,2,10,18,16,23,,,,,,,,,01.3,01.0,00.8*18
10/01/24 00:01:05 - $GNGSA,A,2,85,69,68,74,76,,,,,,,,01.3,01.0,00.8*18
10/01/24 00:01:06 - $GNGNS,210106.00,4440.8796,N,03747.6089,E,AA,09,01.0,052.9,24.8,,*60
10/01/24 00:01:06 - $GPRMC,210106.00,A,4440.8796,N,03747.6089,E,00.30,003.8,090124,,,A*58
10/01/24 00:01:06 - $GNGSA,A,2,10,18,16,23,,,,,,,,,01.3,01.0,00.8*18
10/01/24 00:01:06 - $GNGSA,A,2,85,69,68,74,76,,,,,,,,01.3,01.0,00.8*18
10/01/24 00:01:07 - $GNGNS,210107.00,4440.8796,N,03747.6089,E,AA,09,01.0,052.9,24.8,,*61
10/01/24 00:01:07 - $GPRMC,210107.00,A,4440.8796,N,03747.6089,E,00.35,021.5,090124,,,A*51
10/01/24 00:01:07 - $GNGSA,A,2,10,18,16,23,,,,,,,,,01.3,01.0,00.8*18
10/01/24 00:01:07 - $GNGSA,A,2,85,69,68,74,76,,,,,,,,01.3,01.0,00.8*18
10/01/24 00:01:08 - $GNGNS,210108.00,4440.8796,N,03747.6089,E,AA,09,01.0,052.9,24.8,,*6E
10/01/24 00:01:08 - $GPRMC,210108.00,A,4440.8796,N,03747.6089,E,00.41,192.2,090124,,,A*53
10/01/24 00:01:08 - $GNGSA,A,2,10,18,16,23,,,,,,,,,01.3,01.0,00.8*18
10/01/24 00:01:08 - $GNGSA,A,2,85,69,68,74,76,,,,,,,,01.3,01.0,00.8*18
10/01/24 00:01:09 - $GNGNS,210109.00,4440.8794,N,03747.6089,E,AA,09,01.0,052.9,24.8,,*6D
10/01/24 00:01:09 - $GPRMC,210109.00,A,4440.8794,N,03747.6089,E,00.38,095.7,090124,,,A*5D
10/01/24 00:01:09 - $GNGSA,A,2,10,18,16,23,,,,,,,,,01.3,01.0,00.8*18
10/01/24 00:01:09 - $GNGSA,A,2,85,69,68,74,76,,,,,,,,01.3,01.0,00.8*18
10/01/24 00:01:10 - $GNGNS,210110.00,4440.8793,N,03747.6088,E,AA,09,01.0,052.9,24.8,,*63
10/01/24 00:01:10 - $GPRMC,210110.00,A,4440.8793,N,03747.6088,E,01.05,229.1,090124,,,A*5F
10/01/24 00:01:10 - $GNGSA,A,2,10,18,16,23,,,,,,,,,01.3,01.0,00.8*18
10/01/24 00:01:10 - $GNGSA,A,2,85,69,68,74,76,,,,,,,,01.3,01.0,00.8*18
10/01/24 00:01:10 - $GNGBS,210110.00,8.3,8.2,1.3,,,,*5F
10/01/24 00:01:10 - $GPGSV,4,1,13,08,29,310,25,10,77,215,26,15,18,044,22,16,28,230,23*7B
10/01/24 00:01:11 - $GPGSV,4,2,13,18,35,082,25,21,08,283,00,23,62,053,26,26,10,210,00*7C
10/01/24 00:01:11 - $AIALR,246060,32,A,A,Heading lost/invalid*4E
10/01/24 00:01:11 - $GPGSV,4,3,13,32,19,163,21,33,17,242,00,37,36,202,00,39,37,197,00*70
10/01/24 00:01:11 - $GPGSV,4,4,13,40,36,156,00*48
10/01/24 00:01:11 - $GLGSV,3,1,09,68,43,043,33,69,62,138,36,70,10,190,00,74,05,243,17*6F
10/01/24 00:01:11 - $GLGSV,3,2,09,75,17,293,28,76,07,347,25,83,27,100,25,84,66,007,20*6B
10/01/24 00:01:11 - $GLGSV,3,3,09,85,20,307,30*54
10/01/24 00:01:11 - $GNGNS,210111.00,4440.8793,N,03747.6087,E,AA,09,01.1,052.8,24.8,,*6D
10/01/24 00:01:11 - $GPRMC,210111.00,A,4440.8793,N,03747.6087,E,00.20,198.4,090124,,,A*5B
10/01/24 00:01:11 - $GNGSA,A,3,10,18,16,23,,,,,,,,,01.9,01.1,01.5*1E
10/01/24 00:01:12 - $GNGSA,A,3,85,69,68,74,76,,,,,,,,01.9,01.1,01.5*1E
10/01/24 00:01:12 - $GNGNS,210112.00,4440.8793,N,03747.6087,E,AA,09,01.0,053.3,24.8,,*65
10/01/24 00:01:12 - $GPRMC,210112.00,A,4440.8793,N,03747.6087,E,00.05,015.5,090124,,,A*5A
10/01/24 00:01:12 - $GNGSA,A,2,10,18,16,23,,,,,,,,,01.3,01.0,00.8*18
10/01/24 00:01:12 - $GNGSA,A,2,85,69,68,74,76,,,,,,,,01.3,01.0,00.8*18
10/01/24 00:01:12 - $AIVER,1,1,AI,TRA,,1,T600-01 SO,2.02.(Sep 24 2015),HWR-1*4F
10/01/24 00:01:12 - $AIVSD,37,0.0,2,,153500,29,11,0,0*74
10/01/24 00:01:12 - $AISSD,,TEST,0,0,0,0,0,GN*63
10/01/24 00:01:12 - $AISSD,,TEST,0,0,0,0,0,AI*62
10/01/24 00:01:12 - $AIVER,1,1,AI,TRA,,1,T600-01 SO,2.02.(Sep 24 2015),HWR-1*4F
10/01/24 00:01:13 - $GNGNS,210113.00,4440.8793,N,03747.6086,E,AA,09,01.0,053.3,24.8,,*65
10/01/24 00:01:13 - $GPRMC,210113.00,A,4440.8793,N,03747.6086,E,00.11,066.0,090124,,,A*5E
10/01/24 00:01:13 - $GNGSA,A,2,10,18,16,23,,,,,,,,,01.3,01.0,00.8*18
10/01/24 00:01:13 - $GNGSA,A,2,85,69,68,74,76,,,,,,,,01.3,01.0,00.8*18
10/01/24 00:01:14 - $GNGNS,210114.00,4440.8793,N,03747.6086,E,AA,09,01.0,053.3,24.8,,*62
10/01/24 00:01:14 - $GPRMC,210114.00,A,4440.8793,N,03747.6086,E,00.35,236.3,090124,,,A*5B
10/01/24 00:01:14 - $GNGSA,A,2,10,18,16,23,,,,,,,,,01.3,01.0,00.8*18
10/01/24 00:01:14 - $GNGSA,A,2,85,69,68,74,76,,,,,,,,01.3,01.0,00.8*18
10/01/24 00:01:15 - $GNGNS,210115.00,4440.8793,N,03747.6086,E,AA,09,01.0,053.3,24.8,,*63
10/01/24 00:01:15 - $GPRMC,210115.00,A,4440.8793,N,03747.6086,E,00.20,052.4,090124,,,A*59
10/01/24 00:01:15 - $GNGSA,A,2,10,18,16,23,,,,,,,,,01.3,01.0,00.8*18
10/01/24 00:01:15 - $GNGSA,A,2,85,69,68,74,76,,,,,,,,01.3,01.0,00.8*18
10/01/24 00:01:16 - $GNGNS,210116.00,4440.8794,N,03747.6086,E,AA,09,01.0,053.3,24.8,,*67
10/01/24 00:01:16 - $GPRMC,210116.00,A,4440.8794,N,03747.6086,E,00.42,325.9,090124,,,A*57
10/01/24 00:01:16 - $GNGSA,A,2,10,18,16,23,,,,,,,,,01.3,01.0,00.8*18
10/01/24 00:01:16 - $GNGSA,A,2,85,69,68,74,76,,,,,,,,01.3,01.0,00.8*18
10/01/24 00:01:17 - $GNGNS,210117.00,4440.8795,N,03747.6085,E,AA,09,01.0,053.3,24.8,,*64
10/01/24 00:01:17 - $GPRMC,210117.00,A,4440.8795,N,03747.6085,E,00.21,297.7,090124,,,A*57
10/01/24 00:01:17 - $GNGSA,A,2,10,18,16,23,,,,,,,,,01.3,01.0,00.8*18
10/01/24 00:01:17 - $GNGSA,A,2,85,69,68,74,76,,,,,,,,01.3,01.0,00.8*18
10/01/24 00:01:18 - $GNGNS,210118.00,4440.8795,N,03747.6083,E,AA,09,01.0,053.3,24.8,,*6D
10/01/24 00:01:18 - $GPRMC,210118.00,A,4440.8795,N,03747.6083,E,00.57,323.7,090124,,,A*51
10/01/24 00:01:18 - $GNGSA,A,2,10,18,16,23,,,,,,,,,01.3,01.0,00.8*18
10/01/24 00:01:18 - $GNGSA,A,2,85,69,68,74,76,,,,,,,,01.3,01.0,00.8*18
10/01/24 00:01:19 - $GNGNS,210119.00,4440.8796,N,03747.6082,E,AA,09,01.0,053.3,24.8,,*6E
10/01/24 00:01:19 - $GPRMC,210119.00,A,4440.8796,N,03747.6082,E,00.11,330.4,090124,,,A*51
10/01/24 00:01:19 - $GNGSA,A,2,10,18,16,23,,,,,,,,,01.3,01.0,00.8*18
10/01/24 00:01:19 - $GNGSA,A,2,85,69,68,74,76,,,,,,,,01.3,01.0,00.8*18
10/01/24 00:01:20 - $GNGNS,210120.00,4440.8797,N,03747.6083,E,AA,09,01.0,053.3,24.8,,*64
10/01/24 00:01:20 - $GPRMC,210120.00,A,4440.8797,N,03747.6083,E,00.71,002.1,090124,,,A*5A
10/01/24 00:01:20 - $GNGSA,A,2,10,18,16,23,,,,,,,,,01.3,01.0,00.8*18
10/01/24 00:01:20 - $GNGSA,A,2,85,69,68,74,76,,,,,,,,01.3,01.0,00.8*18
10/01/24 00:01:20 - $GNGBS,210120.00,9.1,8.6,2.0,,,,*5B
10/01/24 00:01:20 - $GPGSV,4,1,13,08,29,310,24,10,77,215,26,15,18,044,23,16,28,230,21*79
10/01/24 00:01:21 - $GPGSV,4,2,13,18,35,082,25,21,08,283,00,23,62,053,24,26,10,210,00*7E
10/01/24 00:01:21 - $GPGSV,4,3,13,32,19,163,21,33,17,242,00,37,36,202,00,39,37,197,00*70
10/01/24 00:01:21 - $GPGSV,4,4,13,40,36,156,00*48
10/01/24 00:01:21 - $GLGSV,3,1,09,68,43,043,36,69,62,138,37,70,10,190,00,74,05,243,18*64
10/01/24 00:01:21 - $GLGSV,3,2,09,75,17,293,28,76,07,347,28,83,27,100,25,84,66,008,22*6B
10/01/24 00:01:21 - $GLGSV,3,3,09,85,20,308,31*5A
10/01/24 00:01:21 - $GNGNS,210121.00,4440.8798,N,03747.6083,E,AA,09,01.0,053.3,24.8,,*6A
10/01/24 00:01:21 - $GPRMC,210121.00,A,4440.8798,N,03747.6083,E,00.17,341.8,090124,,,A*59
10/01/24 00:01:21 - $GNGSA,A,2,10,18,16,23,,,,,,,,,01.3,01.0,00.8*18
10/01/24 00:01:22 - $GNGSA,A,2,85,69,68,74,76,,,,,,,,01.3,01.0,00.8*18
10/01/24 00:01:22 - $GNGNS,210122.00,4440.8797,N,03747.6083,E,AA,09,01.0,053.3,24.8,,*66
10/01/24 00:01:22 - $GPRMC,210122.00,A,4440.8797,N,03747.6083,E,00.99,170.6,090124,,,A*5D
10/01/24 00:01:22 - $GNGSA,A,2,10,18,16,23,,,,,,,,,01.3,01.0,00.8*18
10/01/24 00:01:22 - $GNGSA,A,2,85,69,68,74,76,,,,,,,,01.3,01.0,00.8*18
10/01/24 00:01:23 - $GNGNS,210123.00,4440.8795,N,03747.6082,E,AA,09,01.0,053.3,24.8,,*64
10/01/24 00:01:23 - $GPRMC,210123.00,A,4440.8795,N,03747.6082,E,00.17,280.1,090124,,,A*52
10/01/24 00:01:23 - $GNGSA,A,2,10,18,16,23,,,,,,,,,01.3,01.0,00.8*18
10/01/24 00:01:23 - $GNGSA,A,2,85,69,68,74,76,,,,,,,,01.3,01.0,00.8*18
10/01/24 00:01:24 - $AIVER,1,1,AI,TRA,,1,T600-01 SO,2.02.(Sep 24 2015),HWR-1*4F
10/01/24 00:01:24 - $AIVSD,37,0.0,2,,153500,29,11,0,0*74
10/01/24 00:01:24 - $AISSD,,TEST,0,0,0,0,0,GN*63
10/01/24 00:01:24 - $AISSD,,TEST,0,0,0,0,0,AI*62
10/01/24 00:01:24 - $AIVER,1,1,AI,TRA,,1,T600-01 SO,2.02.(Sep 24 2015),HWR-1*4F
10/01/24 00:01:24 - $GNGNS,210124.00,4440.8795,N,03747.6079,E,AA,09,01.0,053.3,24.8,,*67
10/01/24 00:01:24 - $GPRMC,210124.00,A,4440.8795,N,03747.6079,E,00.36,254.9,090124,,,A*53
10/01/24 00:01:24 - $GNGSA,A,2,10,18,16,23,,,,,,,,,01.3,01.0,00.8*18
10/01/24 00:01:24 - $GNGSA,A,2,85,69,68,74,76,,,,,,,,01.3,01.0,00.8*18
10/01/24 00:01:25 - $GNGNS,210125.00,4440.8794,N,03747.6078,E,AA,09,01.0,053.3,24.8,,*66
10/01/24 00:01:25 - $GPRMC,210125.00,A,4440.8794,N,03747.6078,E,00.56,063.9,090124,,,A*52
10/01/24 00:01:25 - $GNGSA,A,2,10,18,16,23,,,,,,,,,01.3,01.0,00.8*18
10/01/24 00:01:25 - $GNGSA,A,2,85,69,68,74,76,,,,,,,,01.3,01.0,00.8*18
10/01/24 00:01:26 - $GNGNS,210126.00,4440.8794,N,03747.6078,E,AA,09,01.0,053.3,24.8,,*65
10/01/24 00:01:26 - $GPRMC,210126.00,A,4440.8794,N,03747.6078,E,00.27,330.7,090124,,,A*5C
10/01/24 00:01:26 - $GNGSA,A,2,10,18,16,23,,,,,,,,,01.3,01.0,00.8*18
10/01/24 00:01:26 - $GNGSA,A,2,85,69,68,74,76,,,,,,,,01.3,01.0,00.8*18
10/01/24 00:01:27 - $GNGNS,210127.00,4440.8793,N,03747.6077,E,AA,08,01.1,053.3,24.8,,*6C
10/01/24 00:01:27 - $GPRMC,210127.00,A,4440.8793,N,03747.6077,E,00.31,172.7,090124,,,A*56
10/01/24 00:01:27 - $GNGSA,A,2,10,18,16,23,,,,,,,,,01.4,01.1,00.8*1E
10/01/24 00:01:27 - $GNGSA,A,2,85,69,68,76,,,,,,,,,01.4,01.1,00.8*1D
10/01/24 00:01:28 - $GNGNS,210128.00,4440.8792,N,03747.6076,E,AA,08,01.1,053.3,24.8,,*63
10/01/24 00:01:28 - $GPRMC,210128.00,A,4440.8792,N,03747.6076,E,00.12,088.1,090124,,,A*5A
10/01/24 00:01:28 - $GNGSA,A,2,10,18,16,23,,,,,,,,,01.4,01.1,00.8*1E
10/01/24 00:01:28 - $GNGSA,A,2,85,69,68,76,,,,,,,,,01.4,01.1,00.8*1D
10/01/24 00:01:29 - $GNGNS,210129.00,4440.8792,N,03747.6075,E,AA,08,01.1,053.3,24.8,,*61
10/01/24 00:01:29 - $GPRMC,210129.00,A,4440.8792,N,03747.6075,E,00.33,065.9,090124,,,A*50
10/01/24 00:01:29 - $GNGSA,A,2,10,18,16,23,,,,,,,,,01.4,01.1,00.8*1E
10/01/24 00:01:29 - $GNGSA,A,2,85,69,68,76,,,,,,,,,01.4,01.1,00.8*1D
10/01/24 00:01:30 - $GNGNS,210130.00,4440.8792,N,03747.6074,E,AA,08,01.1,053.3,24.8,,*68
10/01/24 00:01:30 - $GPRMC,210130.00,A,4440.8792,N,03747.6074,E,00.23,130.7,090124,,,A*57
10/01/24 00:01:30 - $GNGSA,A,2,10,18,16,23,,,,,,,,,01.4,01.1,00.8*1E
10/01/24 00:01:30 - $GNGSA,A,2,85,69,68,76,,,,,,,,,01.4,01.1,00.8*1D
10/01/24 00:01:30 - $GNGBS,210130.00,8.4,8.7,1.4,,,,*58
10/01/24 00:01:30 - $GPGSV,4,1,13,08,29,310,25,10,77,215,25,15,18,044,22,16,28,230,22*79
10/01/24 00:01:30 - $GPGSV,4,2,13,18,35,083,25,21,08,283,00,23,61,053,25,26,10,210,00*7D
10/01/24 00:01:31 - $GPGSV,4,3,13,32,19,163,22,33,17,242,00,37,36,202,00,39,37,197,00*73
10/01/24 00:01:31 - $GPGSV,4,4,13,40,36,156,00*48
10/01/24 00:01:31 - $GLGSV,2,1,08,68,43,043,34,69,62,138,36,70,10,191,00,75,17,293,28*6A
10/01/24 00:01:31 - $GLGSV,2,2,08,76,07,347,28,83,27,100,27,84,66,008,21,85,20,308,30*6B
10/01/24 00:01:31 - $GNGNS,210131.00,4440.8791,N,03747.6072,E,AA,08,01.1,053.3,24.8,,*6C
10/01/24 00:01:31 - $GPRMC,210131.00,A,4440.8791,N,03747.6072,E,00.13,291.2,090124,,,A*5D
10/01/24 00:01:31 - $GNGSA,A,2,10,18,16,23,,,,,,,,,01.4,01.1,00.8*1E
10/01/24 00:01:32 - $GNGSA,A,2,85,69,68,76,,,,,,,,,01.4,01.1,00.8*1D
10/01/24 00:01:32 - $GNGNS,210132.00,4440.8792,N,03747.6073,E,AA,08,01.1,053.3,24.8,,*6D
10/01/24 00:01:32 - $GPRMC,210132.00,A,4440.8792,N,03747.6073,E,00.88,060.1,090124,,,A*51
10/01/24 00:01:32 - $GNGSA,A,2,10,18,16,23,,,,,,,,,01.4,01.1,00.8*1E
10/01/24 00:01:32 - $GNGSA,A,2,85,69,68,76,,,,,,,,,01.4,01.1,00.8*1D
10/01/24 00:01:33 - $GNGNS,210133.00,4440.8792,N,03747.6075,E,AA,08,01.1,053.3,24.8,,*6A
10/01/24 00:01:33 - $GPRMC,210133.00,A,4440.8792,N,03747.6075,E,00.18,125.8,090124,,,A*56
10/01/24 00:01:33 - $GNGSA,A,2,10,18,16,23,,,,,,,,,01.4,01.1,00.8*1E
10/01/24 00:01:33 - $GNGSA,A,2,85,69,68,76,,,,,,,,,01.4,01.1,00.8*1D
10/01/24 00:01:34 - $GNGNS,210134.00,4440.8791,N,03747.6075,E,AA,08,01.1,053.3,24.8,,*6E
10/01/24 00:01:34 - $GPRMC,210134.00,A,4440.8791,N,03747.6075,E,00.57,156.2,090124,,,A*57
10/01/24 00:01:34 - $GNGSA,A,2,10,18,16,23,,,,,,,,,01.4,01.1,00.8*1E
10/01/24 00:01:34 - $GNGSA,A,2,85,69,68,76,,,,,,,,,01.4,01.1,00.8*1D
10/01/24 00:01:35 - $AIVER,1,1,AI,TRA,,1,T600-01 SO,2.02.(Sep 24 2015),HWR-1*4F
10/01/24 00:01:35 - $AIVSD,37,0.0,2,,153500,29,11,0,0*74
10/01/24 00:01:35 - $AISSD,,TEST,0,0,0,0,0,GN*63
10/01/24 00:01:35 - $AISSD,,TEST,0,0,0,0,0,AI*62
10/01/24 00:01:35 - $AIVER,1,1,AI,TRA,,1,T600-01 SO,2.02.(Sep 24 2015),HWR-1*4F
10/01/24 00:01:35 - $GNGNS,210135.00,4440.8791,N,03747.6076,E,AA,08,01.1,053.3,24.8,,*6C
10/01/24 00:01:35 - $GPRMC,210135.00,A,4440.8791,N,03747.6076,E,00.36,005.8,090124,,,A*5F
10/01/24 00:01:35 - $GNGSA,A,2,10,18,16,23,,,,,,,,,01.4,01.1,00.8*1E
10/01/24 00:01:35 - $GNGSA,A,2,85,69,68,76,,,,,,,,,01.4,01.1,00.8*1D
10/01/24 00:01:36 - $GNGNS,210136.00,4440.8792,N,03747.6077,E,AA,08,01.1,053.3,24.8,,*6D
10/01/24 00:01:36 - $GPRMC,210136.00,A,4440.8792,N,03747.6077,E,00.02,043.7,090124,,,A*54
10/01/24 00:01:36 - $GNGSA,A,2,10,18,16,23,,,,,,,,,01.4,01.1,00.8*1E
10/01/24 00:01:36 - $GNGSA,A,2,85,69,68,76,,,,,,,,,01.4,01.1,00.8*1D
10/01/24 00:01:37 - $GNGNS,210137.00,4440.8793,N,03747.6078,E,AA,08,01.3,053.5,24.8,,*66
10/01/24 00:01:37 - $GPRMC,210137.00,A,4440.8793,N,03747.6078,E,00.27,043.5,090124,,,A*5E
10/01/24 00:01:37 - $GNGSA,A,3,10,18,16,23,,,,,,,,,02.3,01.3,01.8*18
10/01/24 00:01:37 - $GNGSA,A,3,85,69,68,76,,,,,,,,,02.3,01.3,01.8*1B
10/01/24 00:01:38 - $GNGNS,210138.00,4440.8793,N,03747.6079,E,AA,08,01.1,053.5,24.8,,*6A
10/01/24 00:01:38 - $GPRMC,210138.00,A,4440.8793,N,03747.6079,E,00.19,149.3,090124,,,A*50
10/01/24 00:01:38 - $GNGSA,A,2,10,18,16,23,,,,,,,,,01.4,01.1,00.8*1E
10/01/24 00:01:38 - $GNGSA,A,2,85,69,68,76,,,,,,,,,01.4,01.1,00.8*1D
10/01/24 00:01:39 - $GNGNS,210139.00,4440.8793,N,03747.6080,E,AA,08,01.1,053.5,24.8,,*6D
10/01/24 00:01:39 - $GPRMC,210139.00,A,4440.8793,N,03747.6080,E,00.02,227.2,090124,,,A*57
10/01/24 00:01:39 - $GNGSA,A,2,10,18,16,23,,,,,,,,,01.4,01.1,00.8*1E
10/01/24 00:01:39 - $GNGSA,A,2,85,69,68,76,,,,,,,,,01.4,01.1,00.8*1D
10/01/24 00:01:40 - $GNGNS,210140.00,4440.8794,N,03747.6079,E,AA,08,01.1,053.5,24.8,,*62
10/01/24 00:01:40 - $GPRMC,210140.00,A,4440.8794,N,03747.6079,E,00.64,267.4,090124,,,A*5A
10/01/24 00:01:40 - $GNGSA,A,2,10,18,16,23,,,,,,,,,01.4,01.1,00.8*1E
10/01/24 00:01:40 - $GNGSA,A,2,85,69,68,76,,,,,,,,,01.4,01.1,00.8*1D
10/01/24 00:01:40 - $GNGBS,210140.00,8.9,8.7,3.3,,,,*57
10/01/24 00:01:40 - $GPGSV,4,1,13,08,29,310,22,10,77,216,27,15,18,044,22,16,28,230,22*7F
10/01/24 00:01:41 - $GPGSV,4,2,13,18,35,083,25,21,09,283,00,23,61,053,24,26,10,210,00*7D
10/01/24 00:01:41 - $AIALR,246060,32,A,A,Heading lost/invalid*4E
10/01/24 00:01:41 - $GPGSV,4,3,13,32,19,163,22,33,17,242,00,37,36,202,00,39,37,197,00*73
10/01/24 00:01:41 - $GPGSV,4,4,13,40,36,156,01*49
10/01/24 00:01:41 - $GLGSV,2,1,08,68,43,043,35,69,62,138,36,70,11,191,00,75,17,293,30*63
10/01/24 00:01:41 - $GLGSV,2,2,08,76,07,347,26,83,27,100,24,84,66,008,20,85,20,308,29*6F
10/01/24 00:01:41 - $GNGNS,210141.00,4440.8795,N,03747.6078,E,AA,08,01.1,053.5,24.8,,*63
10/01/24 00:01:41 - $GPRMC,210141.00,A,4440.8795,N,03747.6078,E,00.35,230.1,090124,,,A*58
10/01/24 00:01:41 - $GNGSA,A,2,10,18,16,23,,,,,,,,,01.4,01.1,00.8*1E
10/01/24 00:01:42 - $GNGSA,A,2,85,69,68,76,,,,,,,,,01.4,01.1,00.8*1D
10/01/24 00:01:42 - $GNGNS,210142.00,4440.8797,N,03747.6080,E,AA,08,01.1,053.5,24.8,,*65
10/01/24 00:01:42 - $GPRMC,210142.00,A,4440.8797,N,03747.6080,E,00.28,102.1,090124,,,A*50
10/01/24 00:01:42 - $GNGSA,A,2,10,18,16,23,,,,,,,,,01.4,01.1,00.8*1E
10/01/24 00:01:42 - $GNGSA,A,2,85,69,68,76,,,,,,,,,01.4,01.1,00.8*1D
10/01/24 00:01:43 - $GNGNS,210143.00,4440.8798,N,03747.6080,E,AA,08,01.1,053.5,24.8,,*6B
10/01/24 00:01:43 - $GPRMC,210143.00,A,4440.8798,N,03747.6080,E,00.22,178.6,090124,,,A*5E
10/01/24 00:01:43 - $GNGSA,A,2,10,18,16,23,,,,,,,,,01.4,01.1,00.8*1E
10/01/24 00:01:43 - $GNGSA,A,2,85,69,68,76,,,,,,,,,01.4,01.1,00.8*1D
10/01/24 00:01:44 - $GNGNS,210144.00,4440.8799,N,03747.6079,E,AA,08,01.1,053.5,24.8,,*6B
10/01/24 00:01:44 - $GPRMC,210144.00,A,4440.8799,N,03747.6079,E,00.61,014.9,090124,,,A*5D
10/01/24 00:01:44 - $GNGSA,A,2,10,18,16,23,,,,,,,,,01.4,01.1,00.8*1E
10/01/24 00:01:44 - $GNGSA,A,2,85,69,68,76,,,,,,,,,01.4,01.1,00.8*1D
10/01/24 00:01:45 - $GNGNS,210145.00,4440.8800,N,03747.6076,E,AA,08,01.3,053.6,24.8,,*6B
10/01/24 00:01:45 - $GPRMC,210145.00,A,4440.8800,N,03747.6076,E,00.27,290.7,090124,,,A*5E
10/01/24 00:01:45 - $GNGSA,A,3,10,18,16,23,,,,,,,,,02.3,01.3,01.8*18
10/01/24 00:01:45 - $GNGSA,A,3,85,69,68,76,,,,,,,,,02.3,01.3,01.8*1B
10/01/24 00:01:46 - $GNGNS,210146.00,4440.8801,N,03747.6075,E,AA,08,01.1,053.6,24.8,,*68
10/01/24 00:01:46 - $AIVER,1,1,AI,TRA,,1,T600-01 SO,2.02.(Sep 24 2015),HWR-1*4F
10/01/24 00:01:46 - $AIVSD,37,0.0,2,,153500,29,11,0,0*74
10/01/24 00:01:46 - $AISSD,,TEST,0,0,0,0,0,GN*63
10/01/24 00:01:46 - $AISSD,,TEST,0,0,0,0,0,AI*62
10/01/24 00:01:46 - $AIVER,1,1,AI,TRA,,1,T600-01 SO,2.02.(Sep 24 2015),HWR-1*4F
10/01/24 00:01:46 - $GPRMC,210146.00,A,4440.8801,N,03747.6075,E,00.54,091.3,090124,,,A*5C
10/01/24 00:01:46 - $GNGSA,A,2,10,18,16,23,,,,,,,,,01.4,01.1,00.8*1E
10/01/24 00:01:46 - $GNGSA,A,2,85,69,68,76,,,,,,,,,01.4,01.1,00.8*1D
10/01/24 00:01:47 - $GNGNS,210147.00,4440.8801,N,03747.6075,E,AA,08,01.1,053.6,24.8,,*69
10/01/24 00:01:47 - $GPRMC,210147.00,A,4440.8801,N,03747.6075,E,01.38,194.9,090124,,,A*58
10/01/24 00:01:47 - $GNGSA,A,2,10,18,16,23,,,,,,,,,01.4,01.1,00.8*1E
10/01/24 00:01:47 - $GNGSA,A,2,85,69,68,76,,,,,,,,,01.4,01.1,00.8*1D
10/01/24 00:01:48 - $GNGNS,210148.00,4440.8804,N,03747.6074,E,AA,08,01.1,053.6,24.8,,*62
10/01/24 00:01:48 - $GPRMC,210148.00,A,4440.8804,N,03747.6074,E,00.22,247.2,090124,,,A*5F
10/01/24 00:01:48 - $GNGSA,A,2,10,18,16,23,,,,,,,,,01.4,01.1,00.8*1E
10/01/24 00:01:48 - $GNGSA,A,2,85,69,68,76,,,,,,,,,01.4,01.1,00.8*1D
10/01/24 00:01:49 - $GNGNS,210149.00,4440.8804,N,03747.6076,E,AA,08,01.1,053.6,24.8,,*61
10/01/24 00:01:49 - $GPRMC,210149.00,A,4440.8804,N,03747.6076,E,00.12,095.1,090124,,,A*51
10/01/24 00:01:49 - $GNGSA,A,2,10,18,16,23,,,,,,,,,01.4,01.1,00.8*1E
10/01/24 00:01:49 - $GNGSA,A,2,85,69,68,76,,,,,,,,,01.4,01.1,00.8*1D
10/01/24 00:01:50 - $GNGNS,210150.00,4440.8805,N,03747.6077,E,AA,08,01.1,053.6,24.8,,*69
10/01/24 00:01:50 - $GPRMC,210150.00,A,4440.8805,N,03747.6077,E,00.39,220.8,090124,,,A*55
10/01/24 00:01:50 - $GNGSA,A,2,10,18,16,23,,,,,,,,,01.4,01.1,00.8*1E
10/01/24 00:01:50 - $GNGSA,A,2,85,69,68,76,,,,,,,,,01.4,01.1,00.8*1D
10/01/24 00:01:50 - $GNGBS,210150.00,8.9,8.7,2.7,,,,*53
10/01/24 00:01:50 - $GPGSV,4,1,13,08,29,310,25,10,77,216,28,15,18,044,21,16,28,229,24*7A
10/01/24 00:01:51 - $GPGSV,4,2,13,18,35,083,24,21,09,284,00,23,61,053,25,26,10,210,00*7A
10/01/24 00:01:51 - $GPGSV,4,3,13,32,19,163,21,33,17,242,00,37,36,202,00,39,37,197,00*70
10/01/24 00:01:51 - $GPGSV,4,4,13,40,36,156,00*48
10/01/24 00:01:51 - $GLGSV,2,1,08,68,43,043,35,69,62,138,36,70,11,191,00,75,17,293,29*6B
10/01/24 00:01:51 - $GLGSV,2,2,08,76,07,347,28,83,27,100,25,84,66,008,22,85,20,308,30*6A
10/01/24 00:01:51 - $GNGNS,210151.00,4440.8804,N,03747.6075,E,AA,08,01.1,053.6,24.8,,*6B
10/01/24 00:01:51 - $GPRMC,210151.00,A,4440.8804,N,03747.6075,E,00.11,010.6,090124,,,A*52
10/01/24 00:01:51 - $GNGSA,A,2,10,18,16,23,,,,,,,,,01.4,01.1,00.8*1E
10/01/24 00:01:52 - $GNGSA,A,2,85,69,68,76,,,,,,,,,01.4,01.1,00.8*1D
10/01/24 00:01:52 - $GNGNS,210152.00,4440.8802,N,03747.6077,E,AA,08,01.3,053.5,24.8,,*6D
10/01/24 00:01:52 - $GPRMC,210152.00,A,4440.8802,N,03747.6077,E,00.57,171.4,090124,,,A*53
10/01/24 00:01:52 - $GNGSA,A,3,10,18,16,23,,,,,,,,,02.3,01.3,01.8*18
10/01/24 00:01:52 - $GNGSA,A,3,85,69,68,76,,,,,,,,,02.3,01.3,01.8*1B
10/01/24 00:01:53 - $GNGNS,210153.00,4440.8800,N,03747.6077,E,AA,08,01.1,052.3,24.8,,*6B
10/01/24 00:01:53 - $GPRMC,210153.00,A,4440.8800,N,03747.6077,E,00.06,321.5,090124,,,A*52
10/01/24 00:01:53 - $GNGSA,A,2,10,18,16,23,,,,,,,,,01.4,01.1,00.8*1E
10/01/24 00:01:53 - $GNGSA,A,2,85,69,68,76,,,,,,,,,01.4,01.1,00.8*1D
10/01/24 00:01:54 - $GNGNS,210154.00,4440.8798,N,03747.6081,E,AA,08,01.3,052.3,24.8,,*69
10/01/24 00:01:54 - $GPRMC,210154.00,A,4440.8798,N,03747.6081,E,00.27,091.5,090124,,,A*59
10/01/24 00:01:54 - $GNGSA,A,3,10,18,16,23,,,,,,,,,02.3,01.3,01.8*18
10/01/24 00:01:54 - $GNGSA,A,3,85,69,68,76,,,,,,,,,02.3,01.3,01.8*1B
10/01/24 00:01:55 - $GNGNS,210155.00,4440.8796,N,03747.6083,E,AA,08,01.3,051.9,24.8,,*6D
10/01/24 00:01:55 - $GPRMC,210155.00,A,4440.8796,N,03747.6083,E,00.45,099.1,090124,,,A*5C
10/01/24 00:01:55 - $GNGSA,A,3,10,18,16,23,,,,,,,,,02.3,01.3,01.8*18
10/01/24 00:01:55 - $GNGSA,A,3,85,69,68,76,,,,,,,,,02.3,01.3,01.8*1B
10/01/24 00:01:56 - $GNGNS,210156.00,4440.8796,N,03747.6084,E,AA,08,01.3,052.0,24.8,,*63
10/01/24 00:01:56 - $GPRMC,210156.00,A,4440.8796,N,03747.6084,E,00.86,315.3,090124,,,A*52
10/01/24 00:01:56 - $GNGSA,A,3,10,18,16,23,,,,,,,,,02.3,01.3,01.8*18
10/01/24 00:01:56 - $GNGSA,A,3,85,69,68,76,,,,,,,,,02.3,01.3,01.8*1B
10/01/24 00:01:57 - $GNGNS,210157.00,4440.8796,N,03747.6083,E,AA,08,01.3,052.4,24.8,,*61
10/01/24 00:01:57 - $GPRMC,210157.00,A,4440.8796,N,03747.6083,E,00.92,333.2,090124,,,A*54
10/01/24 00:01:57 - $AIVER,1,1,AI,TRA,,1,T600-01 SO,2.02.(Sep 24 2015),HWR-1*4F
10/01/24 00:01:57 - $AIVSD,37,0.0,2,,153500,29,11,0,0*74
10/01/24 00:01:57 - $GNGSA,A,3,10,18,16,23,,,,,,,,,02.3,01.3,01.8*18
10/01/24 00:01:57 - $AISSD,,TEST,0,0,0,0,0,GN*63
10/01/24 00:01:57 - $AISSD,,TEST,0,0,0,0,0,AI*62
10/01/24 00:01:57 - $AIVER,1,1,AI,TRA,,1,T600-01 SO,2.02.(Sep 24 2015),HWR-1*4F
10/01/24 00:01:57 - $GNGSA,A,3,85,69,68,76,,,,,,,,,02.3,01.3,01.8*1B
10/01/24 00:01:58 - $GNGNS,210158.00,4440.8797,N,03747.6082,E,AA,08,01.1,052.4,24.8,,*6C
10/01/24 00:01:58 - $GPRMC,210158.00,A,4440.8797,N,03747.6082,E,00.27,079.8,090124,,,A*52
10/01/24 00:01:58 - $GNGSA,A,2,10,18,16,23,,,,,,,,,01.4,01.1,00.8*1E
10/01/24 00:01:58 - $GNGSA,A,2,85,69,68,76,,,,,,,,,01.4,01.1,00.8*1D
10/01/24 00:01:59 - $GNGNS,210159.00,4440.8796,N,03747.6083,E,AA,08,01.3,052.5,24.8,,*6E
10/01/24 00:01:59 - $GPRMC,210159.00,A,4440.8796,N,03747.6083,E,00.31,318.8,090124,,,A*50
10/01/24 00:01:59 - $GNGSA,A,3,10,18,16,23,,,,,,,,,02.3,01.3,01.8*18
10/01/24 00:01:59 - $GNGSA,A,3,85,69,68,76,,,,,,,,,02.3,01.3,01.8*1B
10/01/24 00:02:00 - $GNGNS,210200.00,4440.8796,N,03747.6081,E,AA,08,01.1,052.5,24.8,,*61
10/01/24 00:02:00 - $GPRMC,210200.00,A,4440.8796,N,03747.6081,E,00.42,249.5,090124,,,A*51
10/01/24 00:02:00 - $GNGSA,A,2,10,18,16,23,,,,,,,,,01.4,01.1,00.8*1E
10/01/24 00:02:00 - $GNGSA,A,2,85,69,68,76,,,,,,,,,01.4,01.1,00.8*1D
10/01/24 00:02:00 - $GNGBS,210200.00,10.3,8.8,11.7,,,,*5B
10/01/24 00:02:00 - $GPGSV,4,1,13,08,29,310,23,10,77,216,28,15,18,044,22,16,28,229,20*7B
10/01/24 00:02:01 - $GPGSV,4,2,13,18,35,083,25,21,09,284,00,23,61,053,24,26,10,210,00*7A
10/01/24 00:02:01 - $GPGSV,4,3,13,32,19,163,18,33,17,242,00,37,36,202,00,39,37,197,00*7A
10/01/24 00:02:01 - $GPGSV,4,4,13,40,36,156,00*48
10/01/24 00:02:01 - $GLGSV,2,1,08,68,43,043,35,69,62,138,36,70,11,191,00,75,17,293,28*6A
10/01/24 00:02:01 - $GLGSV,2,2,08,76,07,347,28,83,26,100,25,84,66,008,19,85,20,308,30*63
10/01/24 00:02:01 - $GNGNS,210201.00,4440.8796,N,03747.6080,E,AA,08,01.1,052.5,24.8,,*61
10/01/24 00:02:01 - $GPRMC,210201.00,A,4440.8796,N,03747.6080,E,00.69,055.3,090124,,,A*51
10/01/24 00:02:02 - $GNGSA,A,2,10,18,16,23,,,,,,,,,01.4,01.1,00.8*1E
10/01/24 00:02:02 - $GNGSA,A,2,85,69,68,76,,,,,,,,,01.4,01.1,00.8*1D
10/01/24 00:02:02 - $GNGNS,210202.00,4440.8796,N,03747.6080,E,AA,08,01.1,052.5,24.8,,*62
10/01/24 00:02:02 - $GPRMC,210202.00,A,4440.8796,N,03747.6080,E,00.26,187.7,090124,,,A*53
10/01/24 00:02:02 - $GNGSA,A,2,10,18,16,23,,,,,,,,,01.4,01.1,00.8*1E
10/01/24 00:02:02 - $GNGSA,A,2,85,69,68,76,,,,,,,,,01.4,01.1,00.8*1D
10/01/24 00:02:03 - $GNGNS,210203.00,4440.8795,N,03747.6079,E,AA,08,01.1,052.5,24.8,,*66
10/01/24 00:02:03 - $GPRMC,210203.00,A,4440.8795,N,03747.6079,E,00.18,176.8,090124,,,A*5B
10/01/24 00:02:03 - $GNGSA,A,2,10,18,16,23,,,,,,,,,01.4,01.1,00.8*1E
10/01/24 00:02:03 - $GNGSA,A,2,85,69,68,76,,,,,,,,,01.4,01.1,00.8*1D
10/01/24 00:02:04 - $GNGNS,210204.00,4440.8794,N,03747.6080,E,AA,08,01.1,052.5,24.8,,*66
10/01/24 00:02:04 - $GPRMC,210204.00,A,4440.8794,N,03747.6080,E,00.30,159.9,090124,,,A*5D
10/01/24 00:02:04 - $GNGSA,A,2,10,18,16,23,,,,,,,,,01.4,01.1,00.8*1E
10/01/24 00:02:04 - $GNGSA,A,2,85,69,68,76,,,,,,,,,01.4,01.1,00.8*1D
10/01/24 00:02:05 - $GNGNS,210205.00,4440.8792,N,03747.6082,E,AA,08,01.3,052.3,24.8,,*67
10/01/24 00:02:05 - $GPRMC,210205.00,A,4440.8792,N,03747.6082,E,00.20,127.7,090124,,,A*5E
10/01/24 00:02:05 - $GNGSA,A,3,10,18,16,23,,,,,,,,,02.3,01.3,01.8*18
10/01/24 00:02:05 - $GNGSA,A,3,85,69,68,76,,,,,,,,,02.3,01.3,01.8*1B
10/01/24 00:02:06 - $GNGNS,210206.00,4440.8791,N,03747.6084,E,AA,08,01.1,050.4,24.8,,*66
10/01/24 00:02:06 - $GPRMC,210206.00,A,4440.8791,N,03747.6084,E,00.17,134.9,090124,,,A*50
10/01/24 00:02:06 - $GNGSA,A,2,10,18,16,23,,,,,,,,,01.4,01.1,00.8*1E
10/01/24 00:02:06 - $GNGSA,A,2,85,69,68,76,,,,,,,,,01.4,01.1,00.8*1D
10/01/24 00:02:07 - $GNGNS,210207.00,4440.8792,N,03747.6086,E,AA,08,01.1,050.4,24.8,,*66
10/01/24 00:02:07 - $GPRMC,210207.00,A,4440.8792,N,03747.6086,E,00.31,192.8,090124,,,A*59
10/01/24 00:02:07 - $GNGSA,A,2,10,18,16,23,,,,,,,,,01.4,01.1,00.8*1E
10/01/24 00:02:07 - $GNGSA,A,2,85,69,68,76,,,,,,,,,01.4,01.1,00.8*1D
10/01/24 00:02:08 - $GNGNS,210208.00,4440.8794,N,03747.6086,E,AA,08,01.1,050.4,24.8,,*6F
10/01/24 00:02:08 - $GPRMC,210208.00,A,4440.8794,N,03747.6086,E,00.52,003.8,090124,,,A*5C
10/01/24 00:02:08 - $GNGSA,A,2,10,18,16,23,,,,,,,,,01.4,01.1,00.8*1E
10/01/24 00:02:08 - $GNGSA,A,2,85,69,68,76,,,,,,,,,01.4,01.1,00.8*1D
10/01/24 00:02:08 - $AIVSD,37,0.0,2,,153500,29,11,0,0*74
10/01/24 00:02:08 - $AISSD,,TEST,0,0,0,0,0,GN*63
10/01/24 00:02:08 - $AISSD,,TEST,0,0,0,0,0,AI*62
10/01/24 00:02:08 - $AIVER,1,1,AI,TRA,,1,T600-01 SO,2.02.(Sep 24 2015),HWR-1*4F
10/01/24 00:02:09 - $GNGNS,210209.00,4440.8795,N,03747.6087,E,AA,08,01.3,051.1,24.8,,*68
10/01/24 00:02:09 - $GPRMC,210209.00,A,4440.8795,N,03747.6087,E,01.23,330.7,090124,,,A*56
10/01/24 00:02:09 - $GNGSA,A,3,10,18,16,23,,,,,,,,,02.3,01.3,01.8*18
10/01/24 00:02:09 - $GNGSA,A,3,85,69,68,76,,,,,,,,,02.3,01.3,01.8*1B
10/01/24 00:02:10 - $GNGNS,210210.00,4440.8795,N,03747.6088,E,AA,08,01.1,048.6,24.8,,*62
10/01/24 00:02:10 - $GPRMC,210210.00,A,4440.8795,N,03747.6088,E,00.58,107.7,090124,,,A*5A
10/01/24 00:02:10 - $GNGSA,A,2,10,18,16,23,,,,,,,,,01.4,01.1,00.8*1E
10/01/24 00:02:10 - $GNGSA,A,2,85,69,68,76,,,,,,,,,01.4,01.1,00.8*1D
10/01/24 00:02:10 - $GNGBS,210210.00,10.7,9.0,8.0,,,,*68
10/01/24 00:02:10 - $GPGSV,4,1,13,08,29,310,25,10,77,216,29,15,18,043,23,16,28,229,23*79
10/01/24 00:02:11 - $GPGSV,4,2,13,18,34,083,24,21,09,284,00,23,61,053,24,26,10,210,00*7A
10/01/24 00:02:11 - $AIALR,246060,32,A,A,Heading lost/invalid*4E
10/01/24 00:02:11 - $GPGSV,4,3,13,32,19,163,21,33,17,242,00,37,36,202,00,39,37,197,00*70
10/01/24 00:02:11 - $GPGSV,4,4,13,40,36,156,00*48
10/01/24 00:02:11 - $GLGSV,2,1,08,68,43,043,34,69,62,138,36,70,11,191,00,75,17,293,29*6A
10/01/24 00:02:11 - $GLGSV,2,2,08,76,07,347,25,83,26,100,25,84,66,009,21,85,20,308,31*65
10/01/24 00:02:11 - $GNGNS,210211.00,4440.8799,N,03747.6091,E,AA,08,01.1,048.6,24.8,,*67
10/01/24 00:02:11 - $GPRMC,210211.00,A,4440.8799,N,03747.6091,E,00.19,165.9,090124,,,A*50
10/01/24 00:02:11 - $GNGSA,A,2,10,18,16,23,,,,,,,,,01.4,01.1,00.8*1E
10/01/24 00:02:12 - $GNGSA,A,2,85,69,68,76,,,,,,,,,01.4,01.1,00.8*1D
10/01/24 00:02:12 - $GNGNS,210212.00,4440.8798,N,03747.6093,E,AA,08,01.1,048.6,24.8,,*67
10/01/24 00:02:12 - $GPRMC,210212.00,A,4440.8798,N,03747.6093,E,00.34,281.6,090124,,,A*59
10/01/24 00:02:12 - $GNGSA,A,2,10,18,16,23,,,,,,,,,01.4,01.1,00.8*1E
10/01/24 00:02:12 - $GNGSA,A,2,85,69,68,76,,,,,,,,,01.4,01.1,00.8*1D
10/01/24 00:02:13 - $GNGNS,210213.00,4440.8798,N,03747.6094,E,AA,08,01.1,048.6,24.8,,*61
10/01/24 00:02:13 - $GPRMC,210213.00,A,4440.8798,N,03747.6094,E,00.52,321.3,090124,,,A*51
10/01/24 00:02:13 - $GNGSA,A,2,10,18,16,23,,,,,,,,,01.4,01.1,00.8*1E
10/01/24 00:02:13 - $GNGSA,A,2,85,69,68,76,,,,,,,,,01.4,01.1,00.8*1D
10/01/24 00:02:14 - $GNGNS,210214.00,4440.8797,N,03747.6099,E,AA,08,01.3,048.5,24.8,,*65
10/01/24 00:02:14 - $GPRMC,210214.00,A,4440.8797,N,03747.6099,E,00.24,327.4,090124,,,A*54
10/01/24 00:02:14 - $GNGSA,A,3,10,18,16,23,,,,,,,,,02.3,01.3,01.8*18
10/01/24 00:02:14 - $GNGSA,A,3,85,69,68,76,,,,,,,,,02.3,01.3,01.8*1B
10/01/24 00:02:15 - $GNGNS,210215.00,4440.8797,N,03747.6102,E,AA,08,01.3,048.6,24.8,,*64
10/01/24 00:02:15 - $GPRMC,210215.00,A,4440.8797,N,03747.6102,E,00.19,281.5,090124,,,A*54
10/01/24 00:02:15 - $GNGSA,A,3,10,18,16,23,,,,,,,,,02.3,01.3,01.8*18
10/01/24 00:02:15 - $GNGSA,A,3,85,69,68,76,,,,,,,,,02.3,01.3,01.8*1B
10/01/24 00:02:16 - $GNGNS,210216.00,4440.8797,N,03747.6103,E,AA,08,01.1,048.6,24.8,,*64
10/01/24 00:02:16 - $GPRMC,210216.00,A,4440.8797,N,03747.6103,E,00.43,160.2,090124,,,A*52
10/01/24 00:02:16 - $GNGSA,A,2,10,18,16,23,,,,,,,,,01.4,01.1,00.8*1E
10/01/24 00:02:16 - $GNGSA,A,2,85,69,68,76,,,,,,,,,01.4,01.1,00.8*1D
10/01/24 00:02:17 - $GNGNS,210217.00,4440.8797,N,03747.6104,E,AA,08,01.1,048.6,24.8,,*62
10/01/24 00:02:17 - $GPRMC,210217.00,A,4440.8797,N,03747.6104,E,00.36,081.2,090124,,,A*58
10/01/24 00:02:17 - $GNGSA,A,2,10,18,16,23,,,,,,,,,01.4,01.1,00.8*1E
10/01/24 00:02:17 - $GNGSA,A,2,85,69,68,76,,,,,,,,,01.4,01.1,00.8*1D
10/01/24 00:02:18 - $GNGNS,210218.00,4440.8798,N,03747.6104,E,AA,08,01.1,048.6,24.8,,*62
10/01/24 00:02:18 - $GPRMC,210218.00,A,4440.8798,N,03747.6104,E,00.21,120.5,090124,,,A*53
10/01/24 00:02:18 - $GNGSA,A,2,10,18,16,23,,,,,,,,,01.4,01.1,00.8*1E
10/01/24 00:02:18 - $GNGSA,A,2,85,69,68,76,,,,,,,,,01.4,01.1,00.8*1D
10/01/24 00:02:19 - $GNGNS,210219.00,4440.8798,N,03747.6103,E,AA,08,01.3,048.6,24.8,,*66
10/01/24 00:02:19 - $GPRMC,210219.00,A,4440.8798,N,03747.6103,E,00.17,121.6,090124,,,A*52
10/01/24 00:02:19 - $GNGSA,A,3,10,18,16,23,,,,,,,,,02.3,01.3,01.8*18
10/01/24 00:02:19 - $GNGSA,A,3,85,69,68,76,,,,,,,,,02.3,01.3,01.8*1B
10/01/24 00:02:19 - $AIVER,1,1,AI,TRA,,1,T600-01 SO,2.02.(Sep 24 2015),HWR-1*4F
10/01/24 00:02:19 - $AIVSD,37,0.0,2,,153500,29,11,0,0*74
10/01/24 00:02:19 - $AISSD,,TEST,0,0,0,0,0,GN*63
10/01/24 00:02:19 - $AISSD,,TEST,0,0,0,0,0,AI*62
10/01/24 00:02:19 - $AIVER,1,1,AI,TRA,,1,T600-01 SO,2.02.(Sep 24 2015),HWR-1*4F
10/01/24 00:02:20 - $GNGNS,210220.00,4440.8799,N,03747.6103,E,AA,08,01.1,048.3,24.8,,*6A
10/01/24 00:02:20 - $GPRMC,210220.00,A,4440.8799,N,03747.6103,E,00.46,095.2,090124,,,A*57
10/01/24 00:02:20 - $GNGSA,A,2,10,18,16,23,,,,,,,,,01.4,01.1,00.8*1E
10/01/24 00:02:20 - $GNGSA,A,2,85,69,68,76,,,,,,,,,01.4,01.1,00.8*1D
10/01/24 00:02:20 - $GNGBS,210220.00,10.9,9.6,8.3,,,,*60
10/01/24 00:02:20 - $GPGSV,4,1,13,08,29,310,25,10,77,216,28,15,18,043,22,16,28,229,24*7E
10/01/24 00:02:20 - $GPGSV,4,2,13,18,34,083,25,21,09,284,00,23,61,053,24,26,10,210,13*79
10/01/24 00:02:21 - $GPGSV,4,3,13,32,19,163,22,33,17,242,00,37,36,202,00,39,37,197,00*73
10/01/24 00:02:21 - $GPGSV,4,4,13,40,36,156,00*48
10/01/24 00:02:21 - $GLGSV,2,1,08,68,43,043,34,69,62,138,34,70,11,191,00,75,17,293,27*66
10/01/24 00:02:21 - $GLGSV,2,2,08,76,07,347,27,83,26,100,25,84,66,009,21,85,20,308,30*66
10/01/24 00:02:21 - $GNGNS,210221.00,4440.8800,N,03747.6100,E,AA,08,01.1,048.3,24.8,,*67
10/01/24 00:02:21 - $GPRMC,210221.00,A,4440.8800,N,03747.6100,E,00.53,232.4,090124,,,A*57
10/01/24 00:02:21 - $GNGSA,A,2,10,18,16,23,,,,,,,,,01.4,01.1,00.8*1E
10/01/24 00:02:22 - $GNGSA,A,2,85,69,68,76,,,,,,,,,01.4,01.1,00.8*1D
10/01/24 00:02:22 - $GNGNS,210222.00,4440.8800,N,03747.6099,E,AA,08,01.3,048.3,24.8,,*67
10/01/24 00:02:22 - $GPRMC,210222.00,A,4440.8800,N,03747.6099,E,00.58,162.4,090124,,,A*58
10/01/24 00:02:22 - $GNGSA,A,3,10,18,16,23,,,,,,,,,02.3,01.3,01.8*18
10/01/24 00:02:22 - $GNGSA,A,3,85,69,68,76,,,,,,,,,02.3,01.3,01.8*1B
10/01/24 00:02:23 - $GNGNS,210223.00,4440.8801,N,03747.6097,E,AA,08,01.1,048.7,24.8,,*6F
10/01/24 00:02:23 - $GPRMC,210223.00,A,4440.8801,N,03747.6097,E,00.15,249.1,090124,,,A*50
10/01/24 00:02:23 - $GNGSA,A,2,10,18,16,23,,,,,,,,,01.4,01.1,00.8*1E
10/01/24 00:02:23 - $GNGSA,A,2,85,69,68,76,,,,,,,,,01.4,01.1,00.8*1D
10/01/24 00:02:24 - $GNGNS,210224.00,4440.8799,N,03747.6097,E,AA,08,01.3,048.2,24.8,,*61
10/01/24 00:02:24 - $GPRMC,210224.00,A,4440.8799,N,03747.6097,E,00.62,182.3,090124,,,A*5F
10/01/24 00:02:24 - $GNGSA,A,3,10,18,16,23,,,,,,,,,02.3,01.3,01.8*18
10/01/24 00:02:24 - $GNGSA,A,3,85,69,68,76,,,,,,,,,02.3,01.3,01.8*1B
